$GPGGA,120849.114,5221.832,N,00453.294,E,1,12,1.0,0.0,M,0.0,M,,*6C
$GPGSA,A,3,01,02,03,04,05,06,07,08,09,10,11,12,1.0,1.0,1.0*30
$GPRMC,120849.114,A,5221.832,N,00453.294,E,038.9,190.6,170226,000.0,W*74
$GPGGA,120850.114,5221.821,N,00453.291,E,1,12,1.0,0.0,M,0.0,M,,*63
$GPGSA,A,3,01,02,03,04,05,06,07,08,09,10,11,12,1.0,1.0,1.0*30
$GPRMC,120850.114,A,5221.821,N,00453.291,E,038.9,190.6,170226,000.0,W*7B
$GPGGA,120851.114,5221.810,N,00453.287,E,1,12,1.0,0.0,M,0.0,M,,*67
$GPGSA,A,3,01,02,03,04,05,06,07,08,09,10,11,12,1.0,1.0,1.0*30
$GPRMC,120851.114,A,5221.810,N,00453.287,E,038.9,190.6,170226,000.0,W*7F
$GPGGA,120852.114,5221.800,N,00453.284,E,1,12,1.0,0.0,M,0.0,M,,*66
$GPGSA,A,3,01,02,03,04,05,06,07,08,09,10,11,12,1.0,1.0,1.0*30
$GPRMC,120852.114,A,5221.800,N,00453.284,E,038.9,190.6,170226,000.0,W*7E
$GPGGA,120853.114,5221.789,N,00453.281,E,1,12,1.0,0.0,M,0.0,M,,*6C
$GPGSA,A,3,01,02,03,04,05,06,07,08,09,10,11,12,1.0,1.0,1.0*30
$GPRMC,120853.114,A,5221.789,N,00453.281,E,038.9,190.6,170226,000.0,W*74
$GPGGA,120854.114,5221.779,N,00453.278,E,1,12,1.0,0.0,M,0.0,M,,*62
$GPGSA,A,3,01,02,03,04,05,06,07,08,09,10,11,12,1.0,1.0,1.0*30
$GPRMC,120854.114,A,5221.779,N,00453.278,E,038.9,190.6,170226,000.0,W*7A
$GPGGA,120855.114,5221.768,N,00453.274,E,1,12,1.0,0.0,M,0.0,M,,*6F
$GPGSA,A,3,01,02,03,04,05,06,07,08,09,10,11,12,1.0,1.0,1.0*30
$GPRMC,120855.114,A,5221.768,N,00453.274,E,038.9,190.6,170226,000.0,W*77
$GPGGA,120856.114,5221.757,N,00453.271,E,1,12,1.0,0.0,M,0.0,M,,*65
$GPGSA,A,3,01,02,03,04,05,06,07,08,09,10,11,12,1.0,1.0,1.0*30
$GPRMC,120856.114,A,5221.757,N,00453.271,E,038.9,190.6,170226,000.0,W*7D
$GPGGA,120857.114,5221.747,N,00453.268,E,1,12,1.0,0.0,M,0.0,M,,*6D
$GPGSA,A,3,01,02,03,04,05,06,07,08,09,10,11,12,1.0,1.0,1.0*30
$GPRMC,120857.114,A,5221.747,N,00453.268,E,038.9,190.6,170226,000.0,W*75
$GPGGA,120858.114,5221.736,N,00453.265,E,1,12,1.0,0.0,M,0.0,M,,*69
$GPGSA,A,3,01,02,03,04,05,06,07,08,09,10,11,12,1.0,1.0,1.0*30
$GPRMC,120858.114,A,5221.736,N,00453.265,E,038.9,190.6,170226,000.0,W*71
$GPGGA,120859.114,5221.726,N,00453.261,E,1,12,1.0,0.0,M,0.0,M,,*6D
$GPGSA,A,3,01,02,03,04,05,06,07,08,09,10,11,12,1.0,1.0,1.0*30
$GPRMC,120859.114,A,5221.726,N,00453.261,E,038.9,190.6,170226,000.0,W*75
$GPGGA,120900.114,5221.715,N,00453.258,E,1,12,1.0,0.0,M,0.0,M,,*6A
$GPGSA,A,3,01,02,03,04,05,06,07,08,09,10,11,12,1.0,1.0,1.0*30
$GPRMC,120900.114,A,5221.715,N,00453.258,E,038.9,190.6,170226,000.0,W*72
$GPGGA,120901.114,5221.704,N,00453.255,E,1,12,1.0,0.0,M,0.0,M,,*66
$GPGSA,A,3,01,02,03,04,05,06,07,08,09,10,11,12,1.0,1.0,1.0*30
$GPRMC,120901.114,A,5221.704,N,00453.255,E,038.9,190.6,170226,000.0,W*7E
$GPGGA,120902.114,5221.694,N,00453.252,E,1,12,1.0,0.0,M,0.0,M,,*6A
$GPGSA,A,3,01,02,03,04,05,06,07,08,09,10,11,12,1.0,1.0,1.0*30
$GPRMC,120902.114,A,5221.694,N,00453.252,E,038.9,190.6,170226,000.0,W*72
$GPGGA,120903.114,5221.683,N,00453.248,E,1,12,1.0,0.0,M,0.0,M,,*66
$GPGSA,A,3,01,02,03,04,05,06,07,08,09,10,11,12,1.0,1.0,1.0*30
$GPRMC,120903.114,A,5221.683,N,00453.248,E,038.9,190.6,170226,000.0,W*7E
$GPGGA,120904.114,5221.672,N,00453.245,E,1,12,1.0,0.0,M,0.0,M,,*62
$GPGSA,A,3,01,02,03,04,05,06,07,08,09,10,11,12,1.0,1.0,1.0*30
$GPRMC,120904.114,A,5221.672,N,00453.245,E,038.9,190.6,170226,000.0,W*7A
$GPGGA,120905.114,5221.662,N,00453.242,E,1,12,1.0,0.0,M,0.0,M,,*65
$GPGSA,A,3,01,02,03,04,05,06,07,08,09,10,11,12,1.0,1.0,1.0*30
$GPRMC,120905.114,A,5221.662,N,00453.242,E,038.9,190.6,170226,000.0,W*7D
$GPGGA,120906.114,5221.651,N,00453.239,E,1,12,1.0,0.0,M,0.0,M,,*6A
$GPGSA,A,3,01,02,03,04,05,06,07,08,09,10,11,12,1.0,1.0,1.0*30
$GPRMC,120906.114,A,5221.651,N,00453.239,E,038.9,190.6,170226,000.0,W*72
$GPGGA,120907.114,5221.641,N,00453.235,E,1,12,1.0,0.0,M,0.0,M,,*66
$GPGSA,A,3,01,02,03,04,05,06,07,08,09,10,11,12,1.0,1.0,1.0*30
$GPRMC,120907.114,A,5221.641,N,00453.235,E,038.9,190.6,170226,000.0,W*7E
$GPGGA,120908.114,5221.630,N,00453.232,E,1,12,1.0,0.0,M,0.0,M,,*68
$GPGSA,A,3,01,02,03,04,05,06,07,08,09,10,11,12,1.0,1.0,1.0*30
$GPRMC,120908.114,A,5221.630,N,00453.232,E,038.9,190.6,170226,000.0,W*70
$GPGGA,120909.114,5221.619,N,00453.229,E,1,12,1.0,0.0,M,0.0,M,,*68
$GPGSA,A,3,01,02,03,04,05,06,07,08,09,10,11,12,1.0,1.0,1.0*30
$GPRMC,120909.114,A,5221.619,N,00453.229,E,038.9,190.6,170226,000.0,W*70
$GPGGA,120910.114,5221.609,N,00453.226,E,1,12,1.0,0.0,M,0.0,M,,*6E
$GPGSA,A,3,01,02,03,04,05,06,07,08,09,10,11,12,1.0,1.0,1.0*30
$GPRMC,120910.114,A,5221.609,N,00453.226,E,038.9,190.6,170226,000.0,W*76
$GPGGA,120911.114,5221.598,N,00453.223,E,1,12,1.0,0.0,M,0.0,M,,*61
$GPGSA,A,3,01,02,03,04,05,06,07,08,09,10,11,12,1.0,1.0,1.0*30
$GPRMC,120911.114,A,5221.598,N,00453.223,E,038.9,190.6,170226,000.0,W*79
$GPGGA,120912.114,5221.588,N,00453.219,E,1,12,1.0,0.0,M,0.0,M,,*6A
$GPGSA,A,3,01,02,03,04,05,06,07,08,09,10,11,12,1.0,1.0,1.0*30
$GPRMC,120912.114,A,5221.588,N,00453.219,E,038.9,190.6,170226,000.0,W*72
$GPGGA,120913.114,5221.577,N,00453.216,E,1,12,1.0,0.0,M,0.0,M,,*64
$GPGSA,A,3,01,02,03,04,05,06,07,08,09,10,11,12,1.0,1.0,1.0*30
$GPRMC,120913.114,A,5221.577,N,00453.216,E,038.9,190.6,170226,000.0,W*7C
$GPGGA,120914.114,5221.566,N,00453.213,E,1,12,1.0,0.0,M,0.0,M,,*66
$GPGSA,A,3,01,02,03,04,05,06,07,08,09,10,11,12,1.0,1.0,1.0*30
$GPRMC,120914.114,A,5221.566,N,00453.213,E,038.9,190.6,170226,000.0,W*7E
$GPGGA,120915.114,5221.556,N,00453.210,E,1,12,1.0,0.0,M,0.0,M,,*67
$GPGSA,A,3,01,02,03,04,05,06,07,08,09,10,11,12,1.0,1.0,1.0*30
$GPRMC,120915.114,A,5221.556,N,00453.210,E,038.9,190.6,170226,000.0,W*7F
$GPGGA,120916.114,5221.545,N,00453.206,E,1,12,1.0,0.0,M,0.0,M,,*61
$GPGSA,A,3,01,02,03,04,05,06,07,08,09,10,11,12,1.0,1.0,1.0*30
$GPRMC,120916.114,A,5221.545,N,00453.206,E,038.9,190.6,170226,000.0,W*79
$GPGGA,120917.114,5221.535,N,00453.203,E,1,12,1.0,0.0,M,0.0,M,,*62
$GPGSA,A,3,01,02,03,04,05,06,07,08,09,10,11,12,1.0,1.0,1.0*30
$GPRMC,120917.114,A,5221.535,N,00453.203,E,038.9,190.6,170226,000.0,W*7A
$GPGGA,120918.114,5221.524,N,00453.200,E,1,12,1.0,0.0,M,0.0,M,,*6E
$GPGSA,A,3,01,02,03,04,05,06,07,08,09,10,11,12,1.0,1.0,1.0*30
$GPRMC,120918.114,A,5221.524,N,00453.200,E,038.9,190.6,170226,000.0,W*76
$GPGGA,120919.114,5221.513,N,00453.197,E,1,12,1.0,0.0,M,0.0,M,,*66
$GPGSA,A,3,01,02,03,04,05,06,07,08,09,10,11,12,1.0,1.0,1.0*30
$GPRMC,120919.114,A,5221.513,N,00453.197,E,038.9,190.6,170226,000.0,W*7E
$GPGGA,120920.114,5221.503,N,00453.193,E,1,12,1.0,0.0,M,0.0,M,,*69
$GPGSA,A,3,01,02,03,04,05,06,07,08,09,10,11,12,1.0,1.0,1.0*30
$GPRMC,120920.114,A,5221.503,N,00453.193,E,038.9,190.6,170226,000.0,W*71
$GPGGA,120921.114,5221.492,N,00453.190,E,1,12,1.0,0.0,M,0.0,M,,*62
$GPGSA,A,3,01,02,03,04,05,06,07,08,09,10,11,12,1.0,1.0,1.0*30
$GPRMC,120921.114,A,5221.492,N,00453.190,E,038.9,190.6,170226,000.0,W*7A
$GPGGA,120922.114,5221.482,N,00453.187,E,1,12,1.0,0.0,M,0.0,M,,*66
$GPGSA,A,3,01,02,03,04,05,06,07,08,09,10,11,12,1.0,1.0,1.0*30
$GPRMC,120922.114,A,5221.482,N,00453.187,E,038.9,190.6,170226,000.0,W*7E
$GPGGA,120923.114,5221.471,N,00453.184,E,1,12,1.0,0.0,M,0.0,M,,*68
$GPGSA,A,3,01,02,03,04,05,06,07,08,09,10,11,12,1.0,1.0,1.0*30
$GPRMC,120923.114,A,5221.471,N,00453.184,E,038.9,190.6,170226,000.0,W*70
$GPGGA,120924.114,5221.460,N,00453.180,E,1,12,1.0,0.0,M,0.0,M,,*6B
$GPGSA,A,3,01,02,03,04,05,06,07,08,09,10,11,12,1.0,1.0,1.0*30
$GPRMC,120924.114,A,5221.460,N,00453.180,E,038.9,190.6,170226,000.0,W*73
$GPGGA,120925.114,5221.450,N,00453.177,E,1,12,1.0,0.0,M,0.0,M,,*61
$GPGSA,A,3,01,02,03,04,05,06,07,08,09,10,11,12,1.0,1.0,1.0*30
$GPRMC,120925.114,A,5221.450,N,00453.177,E,038.9,190.6,170226,000.0,W*79
$GPGGA,120926.114,5221.439,N,00453.174,E,1,12,1.0,0.0,M,0.0,M,,*6E
$GPGSA,A,3,01,02,03,04,05,06,07,08,09,10,11,12,1.0,1.0,1.0*30
$GPRMC,120926.114,A,5221.439,N,00453.174,E,038.9,190.6,170226,000.0,W*76
$GPGGA,120927.114,5221.428,N,00453.171,E,1,12,1.0,0.0,M,0.0,M,,*6A
$GPGSA,A,3,01,02,03,04,05,06,07,08,09,10,11,12,1.0,1.0,1.0*30
$GPRMC,120927.114,A,5221.428,N,00453.171,E,038.9,190.6,170226,000.0,W*72
$GPGGA,120928.114,5221.418,N,00453.167,E,1,12,1.0,0.0,M,0.0,M,,*61
$GPGSA,A,3,01,02,03,04,05,06,07,08,09,10,11,12,1.0,1.0,1.0*30
$GPRMC,120928.114,A,5221.418,N,00453.167,E,038.9,190.6,170226,000.0,W*79
$GPGGA,120929.114,5221.407,N,00453.164,E,1,12,1.0,0.0,M,0.0,M,,*6D
$GPGSA,A,3,01,02,03,04,05,06,07,08,09,10,11,12,1.0,1.0,1.0*30
$GPRMC,120929.114,A,5221.407,N,00453.164,E,038.9,190.6,170226,000.0,W*75
$GPGGA,120930.114,5221.397,N,00453.161,E,1,12,1.0,0.0,M,0.0,M,,*6E
$GPGSA,A,3,01,02,03,04,05,06,07,08,09,10,11,12,1.0,1.0,1.0*30
$GPRMC,120930.114,A,5221.397,N,00453.161,E,038.9,190.6,170226,000.0,W*76
$GPGGA,120931.114,5221.386,N,00453.158,E,1,12,1.0,0.0,M,0.0,M,,*65
$GPGSA,A,3,01,02,03,04,05,06,07,08,09,10,11,12,1.0,1.0,1.0*30
$GPRMC,120931.114,A,5221.386,N,00453.158,E,038.9,190.6,170226,000.0,W*7D
$GPGGA,120932.114,5221.375,N,00453.155,E,1,12,1.0,0.0,M,0.0,M,,*67
$GPGSA,A,3,01,02,03,04,05,06,07,08,09,10,11,12,1.0,1.0,1.0*30
$GPRMC,120932.114,A,5221.375,N,00453.155,E,038.9,190.6,170226,000.0,W*7F
$GPGGA,120933.114,5221.365,N,00453.151,E,1,12,1.0,0.0,M,0.0,M,,*63
$GPGSA,A,3,01,02,03,04,05,06,07,08,09,10,11,12,1.0,1.0,1.0*30
$GPRMC,120933.114,A,5221.365,N,00453.151,E,038.9,190.6,170226,000.0,W*7B
$GPGGA,120934.114,5221.354,N,00453.148,E,1,12,1.0,0.0,M,0.0,M,,*6E
$GPGSA,A,3,01,02,03,04,05,06,07,08,09,10,11,12,1.0,1.0,1.0*30
$GPRMC,120934.114,A,5221.354,N,00453.148,E,038.9,190.6,170226,000.0,W*76
$GPGGA,120935.114,5221.344,N,00453.145,E,1,12,1.0,0.0,M,0.0,M,,*63
$GPGSA,A,3,01,02,03,04,05,06,07,08,09,10,11,12,1.0,1.0,1.0*30
$GPRMC,120935.114,A,5221.344,N,00453.145,E,038.9,190.6,170226,000.0,W*7B
$GPGGA,120936.114,5221.333,N,00453.142,E,1,12,1.0,0.0,M,0.0,M,,*67
$GPGSA,A,3,01,02,03,04,05,06,07,08,09,10,11,12,1.0,1.0,1.0*30
$GPRMC,120936.114,A,5221.333,N,00453.142,E,038.9,190.6,170226,000.0,W*7F
$GPGGA,120937.114,5221.322,N,00453.138,E,1,12,1.0,0.0,M,0.0,M,,*6B
$GPGSA,A,3,01,02,03,04,05,06,07,08,09,10,11,12,1.0,1.0,1.0*30
$GPRMC,120937.114,A,5221.322,N,00453.138,E,038.9,190.6,170226,000.0,W*73
$GPGGA,120938.114,5221.312,N,00453.135,E,1,12,1.0,0.0,M,0.0,M,,*6A
$GPGSA,A,3,01,02,03,04,05,06,07,08,09,10,11,12,1.0,1.0,1.0*30
$GPRMC,120938.114,A,5221.312,N,00453.135,E,038.9,190.6,170226,000.0,W*72
$GPGGA,120939.114,5221.301,N,00453.132,E,1,12,1.0,0.0,M,0.0,M,,*6E
$GPGSA,A,3,01,02,03,04,05,06,07,08,09,10,11,12,1.0,1.0,1.0*30
$GPRMC,120939.114,A,5221.301,N,00453.132,E,038.9,190.6,170226,000.0,W*76
$GPGGA,120940.114,5221.291,N,00453.129,E,1,12,1.0,0.0,M,0.0,M,,*62
$GPGSA,A,3,01,02,03,04,05,06,07,08,09,10,11,12,1.0,1.0,1.0*30
$GPRMC,120940.114,A,5221.291,N,00453.129,E,038.9,190.6,170226,000.0,W*7A
$GPGGA,120941.114,5221.280,N,00453.125,E,1,12,1.0,0.0,M,0.0,M,,*6F
$GPGSA,A,3,01,02,03,04,05,06,07,08,09,10,11,12,1.0,1.0,1.0*30
$GPRMC,120941.114,A,5221.280,N,00453.125,E,038.9,190.6,170226,000.0,W*77
$GPGGA,120942.114,5221.269,N,00453.122,E,1,12,1.0,0.0,M,0.0,M,,*6C
$GPGSA,A,3,01,02,03,04,05,06,07,08,09,10,11,12,1.0,1.0,1.0*30
$GPRMC,120942.114,A,5221.269,N,00453.122,E,038.9,190.6,170226,000.0,W*74
$GPGGA,120943.114,5221.259,N,00453.119,E,1,12,1.0,0.0,M,0.0,M,,*66
$GPGSA,A,3,01,02,03,04,05,06,07,08,09,10,11,12,1.0,1.0,1.0*30
$GPRMC,120943.114,A,5221.259,N,00453.119,E,038.9,190.6,170226,000.0,W*7E
$GPGGA,120944.114,5221.248,N,00453.116,E,1,12,1.0,0.0,M,0.0,M,,*6E
$GPGSA,A,3,01,02,03,04,05,06,07,08,09,10,11,12,1.0,1.0,1.0*30
$GPRMC,120944.114,A,5221.248,N,00453.116,E,038.9,190.6,170226,000.0,W*76
$GPGGA,120945.114,5221.238,N,00453.112,E,1,12,1.0,0.0,M,0.0,M,,*6C
$GPGSA,A,3,01,02,03,04,05,06,07,08,09,10,11,12,1.0,1.0,1.0*30
$GPRMC,120945.114,A,5221.238,N,00453.112,E,038.9,190.6,170226,000.0,W*74
$GPGGA,120946.114,5221.227,N,00453.109,E,1,12,1.0,0.0,M,0.0,M,,*6B
$GPGSA,A,3,01,02,03,04,05,06,07,08,09,10,11,12,1.0,1.0,1.0*30
$GPRMC,120946.114,A,5221.227,N,00453.109,E,038.9,190.6,170226,000.0,W*73
$GPGGA,120947.114,5221.216,N,00453.106,E,1,12,1.0,0.0,M,0.0,M,,*67
$GPGSA,A,3,01,02,03,04,05,06,07,08,09,10,11,12,1.0,1.0,1.0*30
$GPRMC,120947.114,A,5221.216,N,00453.106,E,038.9,190.6,170226,000.0,W*7F
$GPGGA,120948.114,5221.206,N,00453.103,E,1,12,1.0,0.0,M,0.0,M,,*6C
$GPGSA,A,3,01,02,03,04,05,06,07,08,09,10,11,12,1.0,1.0,1.0*30
$GPRMC,120948.114,A,5221.206,N,00453.103,E,038.9,190.6,170226,000.0,W*74
$GPGGA,120949.114,5221.195,N,00453.099,E,1,12,1.0,0.0,M,0.0,M,,*66
$GPGSA,A,3,01,02,03,04,05,06,07,08,09,10,11,12,1.0,1.0,1.0*30
$GPRMC,120949.114,A,5221.195,N,00453.099,E,038.9,190.6,170226,000.0,W*7E
$GPGGA,120950.114,5221.184,N,00453.096,E,1,12,1.0,0.0,M,0.0,M,,*61
$GPGSA,A,3,01,02,03,04,05,06,07,08,09,10,11,12,1.0,1.0,1.0*30
$GPRMC,120950.114,A,5221.184,N,00453.096,E,038.9,190.6,170226,000.0,W*79
$GPGGA,120951.114,5221.174,N,00453.093,E,1,12,1.0,0.0,M,0.0,M,,*6A
$GPGSA,A,3,01,02,03,04,05,06,07,08,09,10,11,12,1.0,1.0,1.0*30
$GPRMC,120951.114,A,5221.174,N,00453.093,E,038.9,190.6,170226,000.0,W*72
$GPGGA,120952.114,5221.163,N,00453.090,E,1,12,1.0,0.0,M,0.0,M,,*6C
$GPGSA,A,3,01,02,03,04,05,06,07,08,09,10,11,12,1.0,1.0,1.0*30
$GPRMC,120952.114,A,5221.163,N,00453.090,E,038.9,190.6,170226,000.0,W*74
$GPGGA,120953.114,5221.153,N,00453.087,E,1,12,1.0,0.0,M,0.0,M,,*68
$GPGSA,A,3,01,02,03,04,05,06,07,08,09,10,11,12,1.0,1.0,1.0*30
$GPRMC,120953.114,A,5221.153,N,00453.087,E,038.9,190.6,170226,000.0,W*70
$GPGGA,120954.114,5221.142,N,00453.083,E,1,12,1.0,0.0,M,0.0,M,,*6B
$GPGSA,A,3,01,02,03,04,05,06,07,08,09,10,11,12,1.0,1.0,1.0*30
$GPRMC,120954.114,A,5221.142,N,00453.083,E,038.9,190.6,170226,000.0,W*73
$GPGGA,120955.114,5221.131,N,00453.080,E,1,12,1.0,0.0,M,0.0,M,,*6D
$GPGSA,A,3,01,02,03,04,05,06,07,08,09,10,11,12,1.0,1.0,1.0*30
$GPRMC,120955.114,A,5221.131,N,00453.080,E,038.9,190.6,170226,000.0,W*75
$GPGGA,120956.114,5221.121,N,00453.077,E,1,12,1.0,0.0,M,0.0,M,,*67
$GPGSA,A,3,01,02,03,04,05,06,07,08,09,10,11,12,1.0,1.0,1.0*30
$GPRMC,120956.114,A,5221.121,N,00453.077,E,038.9,190.6,170226,000.0,W*7F
$GPGGA,120957.114,5221.110,N,00453.074,E,1,12,1.0,0.0,M,0.0,M,,*67
$GPGSA,A,3,01,02,03,04,05,06,07,08,09,10,11,12,1.0,1.0,1.0*30
$GPRMC,120957.114,A,5221.110,N,00453.074,E,038.9,190.6,170226,000.0,W*7F
$GPGGA,120958.114,5221.100,N,00453.070,E,1,12,1.0,0.0,M,0.0,M,,*6D
$GPGSA,A,3,01,02,03,04,05,06,07,08,09,10,11,12,1.0,1.0,1.0*30
$GPRMC,120958.114,A,5221.100,N,00453.070,E,038.9,190.6,170226,000.0,W*75
$GPGGA,120959.114,5221.089,N,00453.067,E,1,12,1.0,0.0,M,0.0,M,,*6A
$GPGSA,A,3,01,02,03,04,05,06,07,08,09,10,11,12,1.0,1.0,1.0*30
$GPRMC,120959.114,A,5221.089,N,00453.067,E,038.9,190.6,170226,000.0,W*72
$GPGGA,121000.114,5221.078,N,00453.064,E,1,12,1.0,0.0,M,0.0,M,,*63
$GPGSA,A,3,01,02,03,04,05,06,07,08,09,10,11,12,1.0,1.0,1.0*30
$GPRMC,121000.114,A,5221.078,N,00453.064,E,038.9,190.6,170226,000.0,W*7B
$GPGGA,121001.114,5221.068,N,00453.061,E,1,12,1.0,0.0,M,0.0,M,,*66
$GPGSA,A,3,01,02,03,04,05,06,07,08,09,10,11,12,1.0,1.0,1.0*30
$GPRMC,121001.114,A,5221.068,N,00453.061,E,038.9,190.6,170226,000.0,W*7E
$GPGGA,121002.114,5221.057,N,00453.057,E,1,12,1.0,0.0,M,0.0,M,,*6C
$GPGSA,A,3,01,02,03,04,05,06,07,08,09,10,11,12,1.0,1.0,1.0*30
$GPRMC,121002.114,A,5221.057,N,00453.057,E,038.9,190.6,170226,000.0,W*74
$GPGGA,121003.114,5221.047,N,00453.054,E,1,12,1.0,0.0,M,0.0,M,,*6F
$GPGSA,A,3,01,02,03,04,05,06,07,08,09,10,11,12,1.0,1.0,1.0*30
$GPRMC,121003.114,A,5221.047,N,00453.054,E,038.9,190.6,170226,000.0,W*77
$GPGGA,121004.114,5221.036,N,00453.051,E,1,12,1.0,0.0,M,0.0,M,,*6B
$GPGSA,A,3,01,02,03,04,05,06,07,08,09,10,11,12,1.0,1.0,1.0*30
$GPRMC,121004.114,A,5221.036,N,00453.051,E,038.9,190.6,170226,000.0,W*73
$GPGGA,121005.114,5221.025,N,00453.048,E,1,12,1.0,0.0,M,0.0,M,,*60
$GPGSA,A,3,01,02,03,04,05,06,07,08,09,10,11,12,1.0,1.0,1.0*30
$GPRMC,121005.114,A,5221.025,N,00453.048,E,038.9,190.6,170226,000.0,W*78
$GPGGA,121006.114,5221.015,N,00453.044,E,1,12,1.0,0.0,M,0.0,M,,*6C
$GPGSA,A,3,01,02,03,04,05,06,07,08,09,10,11,12,1.0,1.0,1.0*30
$GPRMC,121006.114,A,5221.015,N,00453.044,E,038.9,190.6,170226,000.0,W*74
$GPGGA,121007.114,5221.004,N,00453.041,E,1,12,1.0,0.0,M,0.0,M,,*68
$GPGSA,A,3,01,02,03,04,05,06,07,08,09,10,11,12,1.0,1.0,1.0*30
$GPRMC,121007.114,A,5221.004,N,00453.041,E,038.9,190.6,170226,000.0,W*70
$GPGGA,121008.114,5220.994,N,00453.038,E,1,12,1.0,0.0,M,0.0,M,,*68
$GPGSA,A,3,01,02,03,04,05,06,07,08,09,10,11,12,1.0,1.0,1.0*30
$GPRMC,121008.114,A,5220.994,N,00453.038,E,038.9,190.6,170226,000.0,W*70
$GPGGA,121009.114,5220.983,N,00453.035,E,1,12,1.0,0.0,M,0.0,M,,*62
$GPGSA,A,3,01,02,03,04,05,06,07,08,09,10,11,12,1.0,1.0,1.0*30
$GPRMC,121009.114,A,5220.983,N,00453.035,E,038.9,190.6,170226,000.0,W*7A
$GPGGA,121010.114,5220.972,N,00453.031,E,1,12,1.0,0.0,M,0.0,M,,*60
$GPGSA,A,3,01,02,03,04,05,06,07,08,09,10,11,12,1.0,1.0,1.0*30
$GPRMC,121010.114,A,5220.972,N,00453.031,E,038.9,190.6,170226,000.0,W*78
$GPGGA,121011.114,5220.962,N,00453.028,E,1,12,1.0,0.0,M,0.0,M,,*68
$GPGSA,A,3,01,02,03,04,05,06,07,08,09,10,11,12,1.0,1.0,1.0*30
$GPRMC,121011.114,A,5220.962,N,00453.028,E,038.9,190.6,170226,000.0,W*70
$GPGGA,121012.114,5220.951,N,00453.025,E,1,12,1.0,0.0,M,0.0,M,,*66
$GPGSA,A,3,01,02,03,04,05,06,07,08,09,10,11,12,1.0,1.0,1.0*30
$GPRMC,121012.114,A,5220.951,N,00453.025,E,038.9,190.6,170226,000.0,W*7E
$GPGGA,121013.114,5220.940,N,00453.022,E,1,12,1.0,0.0,M,0.0,M,,*60
$GPGSA,A,3,01,02,03,04,05,06,07,08,09,10,11,12,1.0,1.0,1.0*30
$GPRMC,121013.114,A,5220.940,N,00453.022,E,038.9,190.6,170226,000.0,W*78
$GPGGA,121014.114,5220.930,N,00453.019,E,1,12,1.0,0.0,M,0.0,M,,*68
$GPGSA,A,3,01,02,03,04,05,06,07,08,09,10,11,12,1.0,1.0,1.0*30
$GPRMC,121014.114,A,5220.930,N,00453.019,E,038.9,190.6,170226,000.0,W*70
$GPGGA,121015.114,5220.919,N,00453.015,E,1,12,1.0,0.0,M,0.0,M,,*6E
$GPGSA,A,3,01,02,03,04,05,06,07,08,09,10,11,12,1.0,1.0,1.0*30
$GPRMC,121015.114,A,5220.919,N,00453.015,E,038.9,190.6,170226,000.0,W*76
$GPGGA,121016.114,5220.909,N,00453.012,E,1,12,1.0,0.0,M,0.0,M,,*6B
$GPGSA,A,3,01,02,03,04,05,06,07,08,09,10,11,12,1.0,1.0,1.0*30
$GPRMC,121016.114,A,5220.909,N,00453.012,E,038.9,190.6,170226,000.0,W*73
$GPGGA,121017.114,5220.898,N,00453.009,E,1,12,1.0,0.0,M,0.0,M,,*69
$GPGSA,A,3,01,02,03,04,05,06,07,08,09,10,11,12,1.0,1.0,1.0*30
$GPRMC,121017.114,A,5220.898,N,00453.009,E,038.9,190.6,170226,000.0,W*71
$GPGGA,121018.114,5220.887,N,00453.006,E,1,12,1.0,0.0,M,0.0,M,,*67
$GPGSA,A,3,01,02,03,04,05,06,07,08,09,10,11,12,1.0,1.0,1.0*30
$GPRMC,121018.114,A,5220.887,N,00453.006,E,038.9,190.6,170226,000.0,W*7F
$GPGGA,121019.114,5220.877,N,00453.002,E,1,12,1.0,0.0,M,0.0,M,,*6D
$GPGSA,A,3,01,02,03,04,05,06,07,08,09,10,11,12,1.0,1.0,1.0*30
$GPRMC,121019.114,A,5220.877,N,00453.002,E,038.9,190.6,170226,000.0,W*75
$GPGGA,121020.114,5220.866,N,00452.999,E,1,12,1.0,0.0,M,0.0,M,,*6D
$GPGSA,A,3,01,02,03,04,05,06,07,08,09,10,11,12,1.0,1.0,1.0*30
$GPRMC,121020.114,A,5220.866,N,00452.999,E,038.9,190.6,170226,000.0,W*75
$GPGGA,121021.114,5220.856,N,00452.996,E,1,12,1.0,0.0,M,0.0,M,,*60
$GPGSA,A,3,01,02,03,04,05,06,07,08,09,10,11,12,1.0,1.0,1.0*30
$GPRMC,121021.114,A,5220.856,N,00452.996,E,038.9,190.6,170226,000.0,W*78
$GPGGA,121022.114,5220.845,N,00452.993,E,1,12,1.0,0.0,M,0.0,M,,*64
$GPGSA,A,3,01,02,03,04,05,06,07,08,09,10,11,12,1.0,1.0,1.0*30
$GPRMC,121022.114,A,5220.845,N,00452.993,E,038.9,190.6,170226,000.0,W*7C
$GPGGA,121023.114,5220.834,N,00452.989,E,1,12,1.0,0.0,M,0.0,M,,*68
$GPGSA,A,3,01,02,03,04,05,06,07,08,09,10,11,12,1.0,1.0,1.0*30
$GPRMC,121023.114,A,5220.834,N,00452.989,E,038.9,190.6,170226,000.0,W*70
$GPGGA,121024.114,5220.824,N,00452.986,E,1,12,1.0,0.0,M,0.0,M,,*61
$GPGSA,A,3,01,02,03,04,05,06,07,08,09,10,11,12,1.0,1.0,1.0*30
$GPRMC,121024.114,A,5220.824,N,00452.986,E,038.9,190.6,170226,000.0,W*79
$GPGGA,121025.114,5220.813,N,00452.983,E,1,12,1.0,0.0,M,0.0,M,,*61
$GPGSA,A,3,01,02,03,04,05,06,07,08,09,10,11,12,1.0,1.0,1.0*30
$GPRMC,121025.114,A,5220.813,N,00452.983,E,038.9,190.6,170226,000.0,W*79
$GPGGA,121026.114,5220.803,N,00452.980,E,1,12,1.0,0.0,M,0.0,M,,*60
$GPGSA,A,3,01,02,03,04,05,06,07,08,09,10,11,12,1.0,1.0,1.0*30
$GPRMC,121026.114,A,5220.803,N,00452.980,E,038.9,190.6,170226,000.0,W*78
$GPGGA,121027.114,5220.792,N,00452.976,E,1,12,1.0,0.0,M,0.0,M,,*6F
$GPGSA,A,3,01,02,03,04,05,06,07,08,09,10,11,12,1.0,1.0,1.0*30
$GPRMC,121027.114,A,5220.792,N,00452.976,E,038.9,190.6,170226,000.0,W*77
$GPGGA,121028.114,5220.781,N,00452.973,E,1,12,1.0,0.0,M,0.0,M,,*67
$GPGSA,A,3,01,02,03,04,05,06,07,08,09,10,11,12,1.0,1.0,1.0*30
$GPRMC,121028.114,A,5220.781,N,00452.973,E,038.9,190.6,170226,000.0,W*7F
$GPGGA,121029.114,5220.771,N,00452.970,E,1,12,1.0,0.0,M,0.0,M,,*6A
$GPGSA,A,3,01,02,03,04,05,06,07,08,09,10,11,12,1.0,1.0,1.0*30
$GPRMC,121029.114,A,5220.771,N,00452.970,E,038.9,190.6,170226,000.0,W*72
$GPGGA,121030.114,5220.760,N,00452.967,E,1,12,1.0,0.0,M,0.0,M,,*64
$GPGSA,A,3,01,02,03,04,05,06,07,08,09,10,11,12,1.0,1.0,1.0*30
$GPRMC,121030.114,A,5220.760,N,00452.967,E,038.9,190.6,170226,000.0,W*7C
$GPGGA,121031.114,5220.750,N,00452.963,E,1,12,1.0,0.0,M,0.0,M,,*62
$GPGSA,A,3,01,02,03,04,05,06,07,08,09,10,11,12,1.0,1.0,1.0*30
$GPRMC,121031.114,A,5220.750,N,00452.963,E,038.9,190.6,170226,000.0,W*7A
$GPGGA,121032.114,5220.739,N,00452.960,E,1,12,1.0,0.0,M,0.0,M,,*6D
$GPGSA,A,3,01,02,03,04,05,06,07,08,09,10,11,12,1.0,1.0,1.0*30
$GPRMC,121032.114,A,5220.739,N,00452.960,E,038.9,190.6,170226,000.0,W*75
$GPGGA,121033.114,5220.728,N,00452.957,E,1,12,1.0,0.0,M,0.0,M,,*68
$GPGSA,A,3,01,02,03,04,05,06,07,08,09,10,11,12,1.0,1.0,1.0*30
$GPRMC,121033.114,A,5220.728,N,00452.957,E,038.9,190.6,170226,000.0,W*70
$GPGGA,121034.114,5220.718,N,00452.954,E,1,12,1.0,0.0,M,0.0,M,,*6F
$GPGSA,A,3,01,02,03,04,05,06,07,08,09,10,11,12,1.0,1.0,1.0*30
$GPRMC,121034.114,A,5220.718,N,00452.954,E,038.9,190.6,170226,000.0,W*77
$GPGGA,121035.114,5220.707,N,00452.951,E,1,12,1.0,0.0,M,0.0,M,,*65
$GPGSA,A,3,01,02,03,04,05,06,07,08,09,10,11,12,1.0,1.0,1.0*30
$GPRMC,121035.114,A,5220.707,N,00452.951,E,038.9,190.6,170226,000.0,W*7D
$GPGGA,121036.114,5220.696,N,00452.947,E,1,12,1.0,0.0,M,0.0,M,,*68
$GPGSA,A,3,01,02,03,04,05,06,07,08,09,10,11,12,1.0,1.0,1.0*30
$GPRMC,121036.114,A,5220.696,N,00452.947,E,038.9,190.6,170226,000.0,W*70
$GPGGA,121037.114,5220.686,N,00452.944,E,1,12,1.0,0.0,M,0.0,M,,*6B
$GPGSA,A,3,01,02,03,04,05,06,07,08,09,10,11,12,1.0,1.0,1.0*30
$GPRMC,121037.114,A,5220.686,N,00452.944,E,038.9,190.6,170226,000.0,W*73
$GPGGA,121038.114,5220.675,N,00452.941,E,1,12,1.0,0.0,M,0.0,M,,*6D
$GPGSA,A,3,01,02,03,04,05,06,07,08,09,10,11,12,1.0,1.0,1.0*30
$GPRMC,121038.114,A,5220.675,N,00452.941,E,038.9,190.6,170226,000.0,W*75
$GPGGA,121039.114,5220.665,N,00452.938,E,1,12,1.0,0.0,M,0.0,M,,*63
$GPGSA,A,3,01,02,03,04,05,06,07,08,09,10,11,12,1.0,1.0,1.0*30
$GPRMC,121039.114,A,5220.665,N,00452.938,E,038.9,190.6,170226,000.0,W*7B
$GPGGA,121040.114,5220.654,N,00452.934,E,1,12,1.0,0.0,M,0.0,M,,*63
$GPGSA,A,3,01,02,03,04,05,06,07,08,09,10,11,12,1.0,1.0,1.0*30
$GPRMC,121040.114,A,5220.654,N,00452.934,E,038.9,190.6,170226,000.0,W*7B
$GPGGA,121041.114,5220.643,N,00452.931,E,1,12,1.0,0.0,M,0.0,M,,*61
$GPGSA,A,3,01,02,03,04,05,06,07,08,09,10,11,12,1.0,1.0,1.0*30
$GPRMC,121041.114,A,5220.643,N,00452.931,E,038.9,190.6,170226,000.0,W*79
$GPGGA,121042.114,5220.633,N,00452.928,E,1,12,1.0,0.0,M,0.0,M,,*6D
$GPGSA,A,3,01,02,03,04,05,06,07,08,09,10,11,12,1.0,1.0,1.0*30
$GPRMC,121042.114,A,5220.633,N,00452.928,E,038.9,190.6,170226,000.0,W*75
$GPGGA,121043.114,5220.622,N,00452.925,E,1,12,1.0,0.0,M,0.0,M,,*61
$GPGSA,A,3,01,02,03,04,05,06,07,08,09,10,11,12,1.0,1.0,1.0*30
$GPRMC,121043.114,A,5220.622,N,00452.925,E,038.9,190.6,170226,000.0,W*79
$GPGGA,121044.114,5220.612,N,00452.921,E,1,12,1.0,0.0,M,0.0,M,,*61
$GPGSA,A,3,01,02,03,04,05,06,07,08,09,10,11,12,1.0,1.0,1.0*30
$GPRMC,121044.114,A,5220.612,N,00452.921,E,038.9,190.6,170226,000.0,W*79
$GPGGA,121045.114,5220.601,N,00452.918,E,1,12,1.0,0.0,M,0.0,M,,*68
$GPGSA,A,3,01,02,03,04,05,06,07,08,09,10,11,12,1.0,1.0,1.0*30
$GPRMC,121045.114,A,5220.601,N,00452.918,E,038.9,190.6,170226,000.0,W*70
$GPGGA,121046.114,5220.590,N,00452.915,E,1,12,1.0,0.0,M,0.0,M,,*6D
$GPGSA,A,3,01,02,03,04,05,06,07,08,09,10,11,12,1.0,1.0,1.0*30
$GPRMC,121046.114,A,5220.590,N,00452.915,E,038.9,190.6,170226,000.0,W*75
$GPGGA,121047.114,5220.580,N,00452.912,E,1,12,1.0,0.0,M,0.0,M,,*6A
$GPGSA,A,3,01,02,03,04,05,06,07,08,09,10,11,12,1.0,1.0,1.0*30
$GPRMC,121047.114,A,5220.580,N,00452.912,E,038.9,190.6,170226,000.0,W*72
$GPGGA,121048.114,5220.569,N,00452.908,E,1,12,1.0,0.0,M,0.0,M,,*69
$GPGSA,A,3,01,02,03,04,05,06,07,08,09,10,11,12,1.0,1.0,1.0*30
$GPRMC,121048.114,A,5220.569,N,00452.908,E,038.9,190.6,170226,000.0,W*71
$GPGGA,121049.114,5220.559,N,00452.905,E,1,12,1.0,0.0,M,0.0,M,,*66
$GPGSA,A,3,01,02,03,04,05,06,07,08,09,10,11,12,1.0,1.0,1.0*30
$GPRMC,121049.114,A,5220.559,N,00452.905,E,038.9,190.6,170226,000.0,W*7E
$GPGGA,121050.114,5220.548,N,00452.902,E,1,12,1.0,0.0,M,0.0,M,,*69
$GPGSA,A,3,01,02,03,04,05,06,07,08,09,10,11,12,1.0,1.0,1.0*30
$GPRMC,121050.114,A,5220.548,N,00452.902,E,038.9,190.6,170226,000.0,W*71
$GPGGA,121051.114,5220.537,N,00452.899,E,1,12,1.0,0.0,M,0.0,M,,*63
$GPGSA,A,3,01,02,03,04,05,06,07,08,09,10,11,12,1.0,1.0,1.0*30
$GPRMC,121051.114,A,5220.537,N,00452.899,E,038.9,190.6,170226,000.0,W*7B
$GPGGA,121052.114,5220.527,N,00452.895,E,1,12,1.0,0.0,M,0.0,M,,*6D
$GPGSA,A,3,01,02,03,04,05,06,07,08,09,10,11,12,1.0,1.0,1.0*30
$GPRMC,121052.114,A,5220.527,N,00452.895,E,038.9,190.6,170226,000.0,W*75
$GPGGA,121053.114,5220.516,N,00452.892,E,1,12,1.0,0.0,M,0.0,M,,*69
$GPGSA,A,3,01,02,03,04,05,06,07,08,09,10,11,12,1.0,1.0,1.0*30
$GPRMC,121053.114,A,5220.516,N,00452.892,E,038.9,190.6,170226,000.0,W*71
$GPGGA,121054.114,5220.505,N,00452.889,E,1,12,1.0,0.0,M,0.0,M,,*66
$GPGSA,A,3,01,02,03,04,05,06,07,08,09,10,11,12,1.0,1.0,1.0*30
$GPRMC,121054.114,A,5220.505,N,00452.889,E,038.9,190.6,170226,000.0,W*7E
$GPGGA,121055.114,5220.495,N,00452.886,E,1,12,1.0,0.0,M,0.0,M,,*60
$GPGSA,A,3,01,02,03,04,05,06,07,08,09,10,11,12,1.0,1.0,1.0*30
$GPRMC,121055.114,A,5220.495,N,00452.886,E,038.9,190.6,170226,000.0,W*78
$GPGGA,121056.114,5220.484,N,00452.883,E,1,12,1.0,0.0,M,0.0,M,,*66
$GPGSA,A,3,01,02,03,04,05,06,07,08,09,10,11,12,1.0,1.0,1.0*30
$GPRMC,121056.114,A,5220.484,N,00452.883,E,038.9,190.6,170226,000.0,W*7E
$GPGGA,121057.114,5220.474,N,00452.879,E,1,12,1.0,0.0,M,0.0,M,,*6D
$GPGSA,A,3,01,02,03,04,05,06,07,08,09,10,11,12,1.0,1.0,1.0*30
$GPRMC,121057.114,A,5220.474,N,00452.879,E,038.9,190.6,170226,000.0,W*75
$GPGGA,121058.114,5220.463,N,00452.876,E,1,12,1.0,0.0,M,0.0,M,,*6B
$GPGSA,A,3,01,02,03,04,05,06,07,08,09,10,11,12,1.0,1.0,1.0*30
$GPRMC,121058.114,A,5220.463,N,00452.876,E,038.9,190.6,170226,000.0,W*73
$GPGGA,121059.114,5220.452,N,00452.873,E,1,12,1.0,0.0,M,0.0,M,,*6D
$GPGSA,A,3,01,02,03,04,05,06,07,08,09,10,11,12,1.0,1.0,1.0*30
$GPRMC,121059.114,A,5220.452,N,00452.873,E,038.9,190.6,170226,000.0,W*75
$GPGGA,121100.114,5220.442,N,00452.870,E,1,12,1.0,0.0,M,0.0,M,,*62
$GPGSA,A,3,01,02,03,04,05,06,07,08,09,10,11,12,1.0,1.0,1.0*30
$GPRMC,121100.114,A,5220.442,N,00452.870,E,038.9,190.6,170226,000.0,W*7A
$GPGGA,121101.114,5220.431,N,00452.866,E,1,12,1.0,0.0,M,0.0,M,,*60
$GPGSA,A,3,01,02,03,04,05,06,07,08,09,10,11,12,1.0,1.0,1.0*30
$GPRMC,121101.114,A,5220.431,N,00452.866,E,038.9,190.6,170226,000.0,W*78
$GPGGA,121102.114,5220.421,N,00452.863,E,1,12,1.0,0.0,M,0.0,M,,*67
$GPGSA,A,3,01,02,03,04,05,06,07,08,09,10,11,12,1.0,1.0,1.0*30
$GPRMC,121102.114,A,5220.421,N,00452.863,E,038.9,190.6,170226,000.0,W*7F
$GPGGA,121103.114,5220.410,N,00452.860,E,1,12,1.0,0.0,M,0.0,M,,*67
$GPGSA,A,3,01,02,03,04,05,06,07,08,09,10,11,12,1.0,1.0,1.0*30
$GPRMC,121103.114,A,5220.410,N,00452.860,E,038.9,190.6,170226,000.0,W*7F
$GPGGA,121104.114,5220.399,N,00452.857,E,1,12,1.0,0.0,M,0.0,M,,*62
$GPGSA,A,3,01,02,03,04,05,06,07,08,09,10,11,12,1.0,1.0,1.0*30
$GPRMC,121104.114,A,5220.399,N,00452.857,E,038.9,190.6,170226,000.0,W*7A
$GPGGA,121105.114,5220.389,N,00452.853,E,1,12,1.0,0.0,M,0.0,M,,*66
$GPGSA,A,3,01,02,03,04,05,06,07,08,09,10,11,12,1.0,1.0,1.0*30
$GPRMC,121105.114,A,5220.389,N,00452.853,E,038.9,190.6,170226,000.0,W*7E
$GPGGA,121106.114,5220.378,N,00452.850,E,1,12,1.0,0.0,M,0.0,M,,*68
$GPGSA,A,3,01,02,03,04,05,06,07,08,09,10,11,12,1.0,1.0,1.0*30
$GPRMC,121106.114,A,5220.378,N,00452.850,E,038.9,190.6,170226,000.0,W*70
$GPGGA,121107.114,5220.368,N,00452.847,E,1,12,1.0,0.0,M,0.0,M,,*6E
$GPGSA,A,3,01,02,03,04,05,06,07,08,09,10,11,12,1.0,1.0,1.0*30
$GPRMC,121107.114,A,5220.368,N,00452.847,E,038.9,190.6,170226,000.0,W*76
$GPGGA,121108.114,5220.357,N,00452.844,E,1,12,1.0,0.0,M,0.0,M,,*6E
$GPGSA,A,3,01,02,03,04,05,06,07,08,09,10,11,12,1.0,1.0,1.0*30
$GPRMC,121108.114,A,5220.357,N,00452.844,E,038.9,269.8,170226,000.0,W*7D
$GPGGA,121109.114,5220.357,N,00452.826,E,1,12,1.0,0.0,M,0.0,M,,*6B
$GPGSA,A,3,01,02,03,04,05,06,07,08,09,10,11,12,1.0,1.0,1.0*30
$GPRMC,121109.114,A,5220.357,N,00452.826,E,038.9,269.8,170226,000.0,W*78
$GPGGA,121110.114,5220.357,N,00452.808,E,1,12,1.0,0.0,M,0.0,M,,*6F
$GPGSA,A,3,01,02,03,04,05,06,07,08,09,10,11,12,1.0,1.0,1.0*30
$GPRMC,121110.114,A,5220.357,N,00452.808,E,038.9,269.8,170226,000.0,W*7C
$GPGGA,121111.114,5220.357,N,00452.791,E,1,12,1.0,0.0,M,0.0,M,,*61
$GPGSA,A,3,01,02,03,04,05,06,07,08,09,10,11,12,1.0,1.0,1.0*30
$GPRMC,121111.114,A,5220.357,N,00452.791,E,038.9,269.8,170226,000.0,W*72
$GPGGA,121112.114,5220.357,N,00452.773,E,1,12,1.0,0.0,M,0.0,M,,*6E
$GPGSA,A,3,01,02,03,04,05,06,07,08,09,10,11,12,1.0,1.0,1.0*30
$GPRMC,121112.114,A,5220.357,N,00452.773,E,038.9,269.8,170226,000.0,W*7D
$GPGGA,121113.114,5220.357,N,00452.755,E,1,12,1.0,0.0,M,0.0,M,,*6B
$GPGSA,A,3,01,02,03,04,05,06,07,08,09,10,11,12,1.0,1.0,1.0*30
$GPRMC,121113.114,A,5220.357,N,00452.755,E,038.9,269.8,170226,000.0,W*78
$GPGGA,121114.114,5220.357,N,00452.738,E,1,12,1.0,0.0,M,0.0,M,,*67
$GPGSA,A,3,01,02,03,04,05,06,07,08,09,10,11,12,1.0,1.0,1.0*30
$GPRMC,121114.114,A,5220.357,N,00452.738,E,038.9,269.8,170226,000.0,W*74
$GPGGA,121115.114,5220.357,N,00452.720,E,1,12,1.0,0.0,M,0.0,M,,*6F
$GPGSA,A,3,01,02,03,04,05,06,07,08,09,10,11,12,1.0,1.0,1.0*30
$GPRMC,121115.114,A,5220.357,N,00452.720,E,038.9,269.8,170226,000.0,W*7C
$GPGGA,121116.114,5220.357,N,00452.702,E,1,12,1.0,0.0,M,0.0,M,,*6C
$GPGSA,A,3,01,02,03,04,05,06,07,08,09,10,11,12,1.0,1.0,1.0*30
$GPRMC,121116.114,A,5220.357,N,00452.702,E,038.9,269.8,170226,000.0,W*7F
$GPGGA,121117.114,5220.357,N,00452.685,E,1,12,1.0,0.0,M,0.0,M,,*63
$GPGSA,A,3,01,02,03,04,05,06,07,08,09,10,11,12,1.0,1.0,1.0*30
$GPRMC,121117.114,A,5220.357,N,00452.685,E,038.9,269.8,170226,000.0,W*70
$GPGGA,121118.114,5220.357,N,00452.667,E,1,12,1.0,0.0,M,0.0,M,,*60
$GPGSA,A,3,01,02,03,04,05,06,07,08,09,10,11,12,1.0,1.0,1.0*30
$GPRMC,121118.114,A,5220.357,N,00452.667,E,038.9,269.8,170226,000.0,W*73
$GPGGA,121119.114,5220.357,N,00452.649,E,1,12,1.0,0.0,M,0.0,M,,*6D
$GPGSA,A,3,01,02,03,04,05,06,07,08,09,10,11,12,1.0,1.0,1.0*30
$GPRMC,121119.114,A,5220.357,N,00452.649,E,038.9,269.8,170226,000.0,W*7E
$GPGGA,121120.114,5220.356,N,00452.632,E,1,12,1.0,0.0,M,0.0,M,,*6A
$GPGSA,A,3,01,02,03,04,05,06,07,08,09,10,11,12,1.0,1.0,1.0*30
$GPRMC,121120.114,A,5220.356,N,00452.632,E,038.9,269.8,170226,000.0,W*79
$GPGGA,121121.114,5220.356,N,00452.614,E,1,12,1.0,0.0,M,0.0,M,,*6F
$GPGSA,A,3,01,02,03,04,05,06,07,08,09,10,11,12,1.0,1.0,1.0*30
$GPRMC,121121.114,A,5220.356,N,00452.614,E,038.9,269.8,170226,000.0,W*7C
$GPGGA,121122.114,5220.356,N,00452.596,E,1,12,1.0,0.0,M,0.0,M,,*65
$GPGSA,A,3,01,02,03,04,05,06,07,08,09,10,11,12,1.0,1.0,1.0*30
$GPRMC,121122.114,A,5220.356,N,00452.596,E,038.9,269.8,170226,000.0,W*76
$GPGGA,121123.114,5220.356,N,00452.579,E,1,12,1.0,0.0,M,0.0,M,,*65
$GPGSA,A,3,01,02,03,04,05,06,07,08,09,10,11,12,1.0,1.0,1.0*30
$GPRMC,121123.114,A,5220.356,N,00452.579,E,038.9,269.8,170226,000.0,W*76
$GPGGA,121124.114,5220.356,N,00452.561,E,1,12,1.0,0.0,M,0.0,M,,*6B
$GPGSA,A,3,01,02,03,04,05,06,07,08,09,10,11,12,1.0,1.0,1.0*30
$GPRMC,121124.114,A,5220.356,N,00452.561,E,038.9,269.8,170226,000.0,W*78
$GPGGA,121125.114,5220.356,N,00452.543,E,1,12,1.0,0.0,M,0.0,M,,*6A
$GPGSA,A,3,01,02,03,04,05,06,07,08,09,10,11,12,1.0,1.0,1.0*30
$GPRMC,121125.114,A,5220.356,N,00452.543,E,038.9,269.8,170226,000.0,W*79
$GPGGA,121126.114,5220.356,N,00452.526,E,1,12,1.0,0.0,M,0.0,M,,*6A
$GPGSA,A,3,01,02,03,04,05,06,07,08,09,10,11,12,1.0,1.0,1.0*30
$GPRMC,121126.114,A,5220.356,N,00452.526,E,038.9,269.8,170226,000.0,W*79
$GPGGA,121127.114,5220.356,N,00452.508,E,1,12,1.0,0.0,M,0.0,M,,*67
$GPGSA,A,3,01,02,03,04,05,06,07,08,09,10,11,12,1.0,1.0,1.0*30
$GPRMC,121127.114,A,5220.356,N,00452.508,E,038.9,269.8,170226,000.0,W*74
$GPGGA,121128.114,5220.356,N,00452.490,E,1,12,1.0,0.0,M,0.0,M,,*68
$GPGSA,A,3,01,02,03,04,05,06,07,08,09,10,11,12,1.0,1.0,1.0*30
$GPRMC,121128.114,A,5220.356,N,00452.490,E,038.9,269.8,170226,000.0,W*7B
$GPGGA,121129.114,5220.356,N,00452.473,E,1,12,1.0,0.0,M,0.0,M,,*64
$GPGSA,A,3,01,02,03,04,05,06,07,08,09,10,11,12,1.0,1.0,1.0*30
$GPRMC,121129.114,A,5220.356,N,00452.473,E,038.9,269.8,170226,000.0,W*77
$GPGGA,121130.114,5220.356,N,00452.455,E,1,12,1.0,0.0,M,0.0,M,,*68
$GPGSA,A,3,01,02,03,04,05,06,07,08,09,10,11,12,1.0,1.0,1.0*30
$GPRMC,121130.114,A,5220.356,N,00452.455,E,038.9,269.8,170226,000.0,W*7B
$GPGGA,121131.114,5220.356,N,00452.437,E,1,12,1.0,0.0,M,0.0,M,,*6D
$GPGSA,A,3,01,02,03,04,05,06,07,08,09,10,11,12,1.0,1.0,1.0*30
$GPRMC,121131.114,A,5220.356,N,00452.437,E,038.9,269.8,170226,000.0,W*7E
$GPGGA,121132.114,5220.356,N,00452.420,E,1,12,1.0,0.0,M,0.0,M,,*68
$GPGSA,A,3,01,02,03,04,05,06,07,08,09,10,11,12,1.0,1.0,1.0*30
$GPRMC,121132.114,A,5220.356,N,00452.420,E,038.9,269.8,170226,000.0,W*7B
$GPGGA,121133.114,5220.356,N,00452.402,E,1,12,1.0,0.0,M,0.0,M,,*69
$GPGSA,A,3,01,02,03,04,05,06,07,08,09,10,11,12,1.0,1.0,1.0*30
$GPRMC,121133.114,A,5220.356,N,00452.402,E,038.9,269.8,170226,000.0,W*7A
$GPGGA,121134.114,5220.356,N,00452.384,E,1,12,1.0,0.0,M,0.0,M,,*67
$GPGSA,A,3,01,02,03,04,05,06,07,08,09,10,11,12,1.0,1.0,1.0*30
$GPRMC,121134.114,A,5220.356,N,00452.384,E,038.9,269.8,170226,000.0,W*74
$GPGGA,121135.114,5220.356,N,00452.367,E,1,12,1.0,0.0,M,0.0,M,,*6B
$GPGSA,A,3,01,02,03,04,05,06,07,08,09,10,11,12,1.0,1.0,1.0*30
$GPRMC,121135.114,A,5220.356,N,00452.367,E,038.9,269.8,170226,000.0,W*78
$GPGGA,121136.114,5220.356,N,00452.349,E,1,12,1.0,0.0,M,0.0,M,,*64
$GPGSA,A,3,01,02,03,04,05,06,07,08,09,10,11,12,1.0,1.0,1.0*30
$GPRMC,121136.114,A,5220.356,N,00452.349,E,038.9,269.8,170226,000.0,W*77
$GPGGA,121137.114,5220.356,N,00452.331,E,1,12,1.0,0.0,M,0.0,M,,*6A
$GPGSA,A,3,01,02,03,04,05,06,07,08,09,10,11,12,1.0,1.0,1.0*30
$GPRMC,121137.114,A,5220.356,N,00452.331,E,038.9,269.8,170226,000.0,W*79
$GPGGA,121138.114,5220.356,N,00452.314,E,1,12,1.0,0.0,M,0.0,M,,*62
$GPGSA,A,3,01,02,03,04,05,06,07,08,09,10,11,12,1.0,1.0,1.0*30
$GPRMC,121138.114,A,5220.356,N,00452.314,E,038.9,269.8,170226,000.0,W*71
$GPGGA,121139.114,5220.356,N,00452.296,E,1,12,1.0,0.0,M,0.0,M,,*68
$GPGSA,A,3,01,02,03,04,05,06,07,08,09,10,11,12,1.0,1.0,1.0*30
$GPRMC,121139.114,A,5220.356,N,00452.296,E,038.9,269.8,170226,000.0,W*7B
$GPGGA,121140.114,5220.356,N,00452.278,E,1,12,1.0,0.0,M,0.0,M,,*66
$GPGSA,A,3,01,02,03,04,05,06,07,08,09,10,11,12,1.0,1.0,1.0*30
$GPRMC,121140.114,A,5220.356,N,00452.278,E,038.9,269.8,170226,000.0,W*75
$GPGGA,121141.114,5220.356,N,00452.261,E,1,12,1.0,0.0,M,0.0,M,,*6F
$GPGSA,A,3,01,02,03,04,05,06,07,08,09,10,11,12,1.0,1.0,1.0*30
$GPRMC,121141.114,A,5220.356,N,00452.261,E,038.9,269.8,170226,000.0,W*7C
$GPGGA,121142.114,5220.356,N,00452.243,E,1,12,1.0,0.0,M,0.0,M,,*6C
$GPGSA,A,3,01,02,03,04,05,06,07,08,09,10,11,12,1.0,1.0,1.0*30
$GPRMC,121142.114,A,5220.356,N,00452.243,E,038.9,269.8,170226,000.0,W*7F
$GPGGA,121143.114,5220.356,N,00452.225,E,1,12,1.0,0.0,M,0.0,M,,*6D
$GPGSA,A,3,01,02,03,04,05,06,07,08,09,10,11,12,1.0,1.0,1.0*30
$GPRMC,121143.114,A,5220.356,N,00452.225,E,038.9,269.8,170226,000.0,W*7E
$GPGGA,121144.114,5220.355,N,00452.208,E,1,12,1.0,0.0,M,0.0,M,,*66
$GPGSA,A,3,01,02,03,04,05,06,07,08,09,10,11,12,1.0,1.0,1.0*30
$GPRMC,121144.114,A,5220.355,N,00452.208,E,038.9,269.8,170226,000.0,W*75
$GPGGA,121145.114,5220.355,N,00452.190,E,1,12,1.0,0.0,M,0.0,M,,*65
$GPGSA,A,3,01,02,03,04,05,06,07,08,09,10,11,12,1.0,1.0,1.0*30
$GPRMC,121145.114,A,5220.355,N,00452.190,E,038.9,269.8,170226,000.0,W*76
$GPGGA,121146.114,5220.355,N,00452.172,E,1,12,1.0,0.0,M,0.0,M,,*6A
$GPGSA,A,3,01,02,03,04,05,06,07,08,09,10,11,12,1.0,1.0,1.0*30
$GPRMC,121146.114,A,5220.355,N,00452.172,E,038.9,269.8,170226,000.0,W*79
$GPGGA,121147.114,5220.355,N,00452.155,E,1,12,1.0,0.0,M,0.0,M,,*6E
$GPGSA,A,3,01,02,03,04,05,06,07,08,09,10,11,12,1.0,1.0,1.0*30
$GPRMC,121147.114,A,5220.355,N,00452.155,E,038.9,269.8,170226,000.0,W*7D
$GPGGA,121148.114,5220.355,N,00452.137,E,1,12,1.0,0.0,M,0.0,M,,*65
$GPGSA,A,3,01,02,03,04,05,06,07,08,09,10,11,12,1.0,1.0,1.0*30
$GPRMC,121148.114,A,5220.355,N,00452.137,E,038.9,269.8,170226,000.0,W*76
$GPGGA,121149.114,5220.355,N,00452.119,E,1,12,1.0,0.0,M,0.0,M,,*68
$GPGSA,A,3,01,02,03,04,05,06,07,08,09,10,11,12,1.0,1.0,1.0*30
$GPRMC,121149.114,A,5220.355,N,00452.119,E,038.9,269.8,170226,000.0,W*7B
$GPGGA,121150.114,5220.355,N,00452.102,E,1,12,1.0,0.0,M,0.0,M,,*6A
$GPGSA,A,3,01,02,03,04,05,06,07,08,09,10,11,12,1.0,1.0,1.0*30
$GPRMC,121150.114,A,5220.355,N,00452.102,E,038.9,269.8,170226,000.0,W*79
$GPGGA,121151.114,5220.355,N,00452.084,E,1,12,1.0,0.0,M,0.0,M,,*64
$GPGSA,A,3,01,02,03,04,05,06,07,08,09,10,11,12,1.0,1.0,1.0*30
$GPRMC,121151.114,A,5220.355,N,00452.084,E,038.9,269.8,170226,000.0,W*77
$GPGGA,121152.114,5220.355,N,00452.066,E,1,12,1.0,0.0,M,0.0,M,,*6B
$GPGSA,A,3,01,02,03,04,05,06,07,08,09,10,11,12,1.0,1.0,1.0*30
$GPRMC,121152.114,A,5220.355,N,00452.066,E,038.9,269.8,170226,000.0,W*78
$GPGGA,121153.114,5220.355,N,00452.049,E,1,12,1.0,0.0,M,0.0,M,,*67
$GPGSA,A,3,01,02,03,04,05,06,07,08,09,10,11,12,1.0,1.0,1.0*30
$GPRMC,121153.114,A,5220.355,N,00452.049,E,038.9,269.8,170226,000.0,W*74
$GPGGA,121154.114,5220.355,N,00452.031,E,1,12,1.0,0.0,M,0.0,M,,*6F
$GPGSA,A,3,01,02,03,04,05,06,07,08,09,10,11,12,1.0,1.0,1.0*30
$GPRMC,121154.114,A,5220.355,N,00452.031,E,038.9,269.8,170226,000.0,W*7C
$GPGGA,121155.114,5220.355,N,00452.013,E,1,12,1.0,0.0,M,0.0,M,,*6E
$GPGSA,A,3,01,02,03,04,05,06,07,08,09,10,11,12,1.0,1.0,1.0*30
$GPRMC,121155.114,A,5220.355,N,00452.013,E,038.9,269.8,170226,000.0,W*7D
$GPGGA,121156.114,5220.355,N,00451.996,E,1,12,1.0,0.0,M,0.0,M,,*6A
$GPGSA,A,3,01,02,03,04,05,06,07,08,09,10,11,12,1.0,1.0,1.0*30
$GPRMC,121156.114,A,5220.355,N,00451.996,E,038.9,269.8,170226,000.0,W*79
$GPGGA,121157.114,5220.355,N,00451.978,E,1,12,1.0,0.0,M,0.0,M,,*6B
$GPGSA,A,3,01,02,03,04,05,06,07,08,09,10,11,12,1.0,1.0,1.0*30
$GPRMC,121157.114,A,5220.355,N,00451.978,E,038.9,269.8,170226,000.0,W*78
$GPGGA,121158.114,5220.355,N,00451.961,E,1,12,1.0,0.0,M,0.0,M,,*6C
$GPGSA,A,3,01,02,03,04,05,06,07,08,09,10,11,12,1.0,1.0,1.0*30
$GPRMC,121158.114,A,5220.355,N,00451.961,E,038.9,269.8,170226,000.0,W*7F
$GPGGA,121159.114,5220.355,N,00451.943,E,1,12,1.0,0.0,M,0.0,M,,*6D
$GPGSA,A,3,01,02,03,04,05,06,07,08,09,10,11,12,1.0,1.0,1.0*30
$GPRMC,121159.114,A,5220.355,N,00451.943,E,038.9,269.8,170226,000.0,W*7E
$GPGGA,121200.114,5220.355,N,00451.925,E,1,12,1.0,0.0,M,0.0,M,,*62
$GPGSA,A,3,01,02,03,04,05,06,07,08,09,10,11,12,1.0,1.0,1.0*30
$GPRMC,121200.114,A,5220.355,N,00451.925,E,038.9,269.8,170226,000.0,W*71
$GPGGA,121201.114,5220.355,N,00451.908,E,1,12,1.0,0.0,M,0.0,M,,*6C
$GPGSA,A,3,01,02,03,04,05,06,07,08,09,10,11,12,1.0,1.0,1.0*30
$GPRMC,121201.114,A,5220.355,N,00451.908,E,038.9,269.8,170226,000.0,W*7F
$GPGGA,121202.114,5220.355,N,00451.890,E,1,12,1.0,0.0,M,0.0,M,,*6F
$GPGSA,A,3,01,02,03,04,05,06,07,08,09,10,11,12,1.0,1.0,1.0*30
$GPRMC,121202.114,A,5220.355,N,00451.890,E,038.9,269.8,170226,000.0,W*7C
$GPGGA,121203.114,5220.355,N,00451.872,E,1,12,1.0,0.0,M,0.0,M,,*62
$GPGSA,A,3,01,02,03,04,05,06,07,08,09,10,11,12,1.0,1.0,1.0*30
$GPRMC,121203.114,A,5220.355,N,00451.872,E,038.9,269.8,170226,000.0,W*71
$GPGGA,121204.114,5220.355,N,00451.855,E,1,12,1.0,0.0,M,0.0,M,,*60
$GPGSA,A,3,01,02,03,04,05,06,07,08,09,10,11,12,1.0,1.0,1.0*30
$GPRMC,121204.114,A,5220.355,N,00451.855,E,038.9,269.8,170226,000.0,W*73
$GPGGA,121205.114,5220.355,N,00451.837,E,1,12,1.0,0.0,M,0.0,M,,*65
$GPGSA,A,3,01,02,03,04,05,06,07,08,09,10,11,12,1.0,1.0,1.0*30
$GPRMC,121205.114,A,5220.355,N,00451.837,E,038.9,269.8,170226,000.0,W*76
$GPGGA,121206.114,5220.355,N,00451.819,E,1,12,1.0,0.0,M,0.0,M,,*6A
$GPGSA,A,3,01,02,03,04,05,06,07,08,09,10,11,12,1.0,1.0,1.0*30
$GPRMC,121206.114,A,5220.355,N,00451.819,E,038.9,269.8,170226,000.0,W*79
$GPGGA,121207.114,5220.355,N,00451.802,E,1,12,1.0,0.0,M,0.0,M,,*61
$GPGSA,A,3,01,02,03,04,05,06,07,08,09,10,11,12,1.0,1.0,1.0*30
$GPRMC,121207.114,A,5220.355,N,00451.802,E,038.9,269.8,170226,000.0,W*72
$GPGGA,121208.114,5220.354,N,00451.784,E,1,12,1.0,0.0,M,0.0,M,,*6E
$GPGSA,A,3,01,02,03,04,05,06,07,08,09,10,11,12,1.0,1.0,1.0*30
$GPRMC,121208.114,A,5220.354,N,00451.784,E,038.9,269.8,170226,000.0,W*7D
$GPGGA,121209.114,5220.354,N,00451.766,E,1,12,1.0,0.0,M,0.0,M,,*63
$GPGSA,A,3,01,02,03,04,05,06,07,08,09,10,11,12,1.0,1.0,1.0*30
$GPRMC,121209.114,A,5220.354,N,00451.766,E,038.9,269.8,170226,000.0,W*70
$GPGGA,121210.114,5220.354,N,00451.749,E,1,12,1.0,0.0,M,0.0,M,,*66
$GPGSA,A,3,01,02,03,04,05,06,07,08,09,10,11,12,1.0,1.0,1.0*30
$GPRMC,121210.114,A,5220.354,N,00451.749,E,038.9,269.8,170226,000.0,W*75
$GPGGA,121211.114,5220.354,N,00451.731,E,1,12,1.0,0.0,M,0.0,M,,*68
$GPGSA,A,3,01,02,03,04,05,06,07,08,09,10,11,12,1.0,1.0,1.0*30
$GPRMC,121211.114,A,5220.354,N,00451.731,E,038.9,269.8,170226,000.0,W*7B
$GPGGA,121212.114,5220.354,N,00451.713,E,1,12,1.0,0.0,M,0.0,M,,*6B
$GPGSA,A,3,01,02,03,04,05,06,07,08,09,10,11,12,1.0,1.0,1.0*30
$GPRMC,121212.114,A,5220.354,N,00451.713,E,038.9,269.8,170226,000.0,W*78
$GPGGA,121213.114,5220.354,N,00451.696,E,1,12,1.0,0.0,M,0.0,M,,*66
$GPGSA,A,3,01,02,03,04,05,06,07,08,09,10,11,12,1.0,1.0,1.0*30
$GPRMC,121213.114,A,5220.354,N,00451.696,E,038.9,269.8,170226,000.0,W*75
$GPGGA,121214.114,5220.354,N,00451.678,E,1,12,1.0,0.0,M,0.0,M,,*61
$GPGSA,A,3,01,02,03,04,05,06,07,08,09,10,11,12,1.0,1.0,1.0*30
$GPRMC,121214.114,A,5220.354,N,00451.678,E,038.9,269.8,170226,000.0,W*72
$GPGGA,121215.114,5220.354,N,00451.660,E,1,12,1.0,0.0,M,0.0,M,,*69
$GPGSA,A,3,01,02,03,04,05,06,07,08,09,10,11,12,1.0,1.0,1.0*30
$GPRMC,121215.114,A,5220.354,N,00451.660,E,038.9,269.8,170226,000.0,W*7A
$GPGGA,121216.114,5220.354,N,00451.643,E,1,12,1.0,0.0,M,0.0,M,,*6B
$GPGSA,A,3,01,02,03,04,05,06,07,08,09,10,11,12,1.0,1.0,1.0*30
$GPRMC,121216.114,A,5220.354,N,00451.643,E,038.9,269.8,170226,000.0,W*78
$GPGGA,121217.114,5220.354,N,00451.625,E,1,12,1.0,0.0,M,0.0,M,,*6A
$GPGSA,A,3,01,02,03,04,05,06,07,08,09,10,11,12,1.0,1.0,1.0*30
$GPRMC,121217.114,A,5220.354,N,00451.625,E,038.9,269.8,170226,000.0,W*79
$GPGGA,121218.114,5220.354,N,00451.607,E,1,12,1.0,0.0,M,0.0,M,,*65
$GPGSA,A,3,01,02,03,04,05,06,07,08,09,10,11,12,1.0,1.0,1.0*30
$GPRMC,121218.114,A,5220.354,N,00451.607,E,038.9,269.8,170226,000.0,W*76
$GPGGA,121219.114,5220.354,N,00451.590,E,1,12,1.0,0.0,M,0.0,M,,*69
$GPGSA,A,3,01,02,03,04,05,06,07,08,09,10,11,12,1.0,1.0,1.0*30
$GPRMC,121219.114,A,5220.354,N,00451.590,E,038.9,269.8,170226,000.0,W*7A
$GPGGA,121220.114,5220.354,N,00451.572,E,1,12,1.0,0.0,M,0.0,M,,*6F
$GPGSA,A,3,01,02,03,04,05,06,07,08,09,10,11,12,1.0,1.0,1.0*30
$GPRMC,121220.114,A,5220.354,N,00451.572,E,038.9,269.8,170226,000.0,W*7C
$GPGGA,121221.114,5220.354,N,00451.554,E,1,12,1.0,0.0,M,0.0,M,,*6A
$GPGSA,A,3,01,02,03,04,05,06,07,08,09,10,11,12,1.0,1.0,1.0*30
$GPRMC,121221.114,A,5220.354,N,00451.554,E,038.9,269.8,170226,000.0,W*79
$GPGGA,121222.114,5220.354,N,00451.537,E,1,12,1.0,0.0,M,0.0,M,,*6C
$GPGSA,A,3,01,02,03,04,05,06,07,08,09,10,11,12,1.0,1.0,1.0*30
$GPRMC,121222.114,A,5220.354,N,00451.537,E,038.9,269.8,170226,000.0,W*7F
$GPGGA,121223.114,5220.354,N,00451.519,E,1,12,1.0,0.0,M,0.0,M,,*61
$GPGSA,A,3,01,02,03,04,05,06,07,08,09,10,11,12,1.0,1.0,1.0*30
$GPRMC,121223.114,A,5220.354,N,00451.519,E,038.9,269.8,170226,000.0,W*72
$GPGGA,121224.114,5220.354,N,00451.501,E,1,12,1.0,0.0,M,0.0,M,,*6F
$GPGSA,A,3,01,02,03,04,05,06,07,08,09,10,11,12,1.0,1.0,1.0*30
$GPRMC,121224.114,A,5220.354,N,00451.501,E,038.9,269.8,170226,000.0,W*7C
$GPGGA,121225.114,5220.354,N,00451.484,E,1,12,1.0,0.0,M,0.0,M,,*62
$GPGSA,A,3,01,02,03,04,05,06,07,08,09,10,11,12,1.0,1.0,1.0*30
$GPRMC,121225.114,A,5220.354,N,00451.484,E,038.9,269.8,170226,000.0,W*71
$GPGGA,121226.114,5220.354,N,00451.466,E,1,12,1.0,0.0,M,0.0,M,,*6D
$GPGSA,A,3,01,02,03,04,05,06,07,08,09,10,11,12,1.0,1.0,1.0*30
$GPRMC,121226.114,A,5220.354,N,00451.466,E,038.9,269.8,170226,000.0,W*7E
$GPGGA,121227.114,5220.354,N,00451.448,E,1,12,1.0,0.0,M,0.0,M,,*60
$GPGSA,A,3,01,02,03,04,05,06,07,08,09,10,11,12,1.0,1.0,1.0*30
$GPRMC,121227.114,A,5220.354,N,00451.448,E,038.9,269.8,170226,000.0,W*73
$GPGGA,121228.114,5220.354,N,00451.431,E,1,12,1.0,0.0,M,0.0,M,,*61
$GPGSA,A,3,01,02,03,04,05,06,07,08,09,10,11,12,1.0,1.0,1.0*30
$GPRMC,121228.114,A,5220.354,N,00451.431,E,038.9,269.8,170226,000.0,W*72
$GPGGA,121229.114,5220.354,N,00451.413,E,1,12,1.0,0.0,M,0.0,M,,*60
$GPGSA,A,3,01,02,03,04,05,06,07,08,09,10,11,12,1.0,1.0,1.0*30
$GPRMC,121229.114,A,5220.354,N,00451.413,E,038.9,269.8,170226,000.0,W*73
$GPGGA,121230.114,5220.354,N,00451.395,E,1,12,1.0,0.0,M,0.0,M,,*61
$GPGSA,A,3,01,02,03,04,05,06,07,08,09,10,11,12,1.0,1.0,1.0*30
$GPRMC,121230.114,A,5220.354,N,00451.395,E,038.9,269.8,170226,000.0,W*72
$GPGGA,121231.114,5220.354,N,00451.378,E,1,12,1.0,0.0,M,0.0,M,,*63
$GPGSA,A,3,01,02,03,04,05,06,07,08,09,10,11,12,1.0,1.0,1.0*30
$GPRMC,121231.114,A,5220.354,N,00451.378,E,038.9,269.8,170226,000.0,W*70
$GPGGA,121232.114,5220.353,N,00451.360,E,1,12,1.0,0.0,M,0.0,M,,*6E
$GPGSA,A,3,01,02,03,04,05,06,07,08,09,10,11,12,1.0,1.0,1.0*30
$GPRMC,121232.114,A,5220.353,N,00451.360,E,038.9,269.8,170226,000.0,W*7D
$GPGGA,121233.114,5220.353,N,00451.342,E,1,12,1.0,0.0,M,0.0,M,,*6F
$GPGSA,A,3,01,02,03,04,05,06,07,08,09,10,11,12,1.0,1.0,1.0*30
$GPRMC,121233.114,A,5220.353,N,00451.342,E,038.9,269.8,170226,000.0,W*7C
$GPGGA,121234.114,5220.353,N,00451.325,E,1,12,1.0,0.0,M,0.0,M,,*69
$GPGSA,A,3,01,02,03,04,05,06,07,08,09,10,11,12,1.0,1.0,1.0*30
$GPRMC,121234.114,A,5220.353,N,00451.325,E,038.9,269.8,170226,000.0,W*7A
$GPGGA,121235.114,5220.353,N,00451.307,E,1,12,1.0,0.0,M,0.0,M,,*68
$GPGSA,A,3,01,02,03,04,05,06,07,08,09,10,11,12,1.0,1.0,1.0*30
$GPRMC,121235.114,A,5220.353,N,00451.307,E,038.9,269.8,170226,000.0,W*7B
$GPGGA,121236.114,5220.353,N,00451.289,E,1,12,1.0,0.0,M,0.0,M,,*6C
$GPGSA,A,3,01,02,03,04,05,06,07,08,09,10,11,12,1.0,1.0,1.0*30
$GPRMC,121236.114,A,5220.353,N,00451.289,E,038.9,269.8,170226,000.0,W*7F
$GPGGA,121237.114,5220.353,N,00451.272,E,1,12,1.0,0.0,M,0.0,M,,*69
$GPGSA,A,3,01,02,03,04,05,06,07,08,09,10,11,12,1.0,1.0,1.0*30
$GPRMC,121237.114,A,5220.353,N,00451.272,E,038.9,269.8,170226,000.0,W*7A
$GPGGA,121238.114,5220.353,N,00451.254,E,1,12,1.0,0.0,M,0.0,M,,*62
$GPGSA,A,3,01,02,03,04,05,06,07,08,09,10,11,12,1.0,1.0,1.0*30
$GPRMC,121238.114,A,5220.353,N,00451.254,E,038.9,269.8,170226,000.0,W*71
$GPGGA,121239.114,5220.353,N,00451.236,E,1,12,1.0,0.0,M,0.0,M,,*67
$GPGSA,A,3,01,02,03,04,05,06,07,08,09,10,11,12,1.0,1.0,1.0*30
$GPRMC,121239.114,A,5220.353,N,00451.236,E,038.9,269.8,170226,000.0,W*74
$GPGGA,121240.114,5220.353,N,00451.219,E,1,12,1.0,0.0,M,0.0,M,,*64
$GPGSA,A,3,01,02,03,04,05,06,07,08,09,10,11,12,1.0,1.0,1.0*30
$GPRMC,121240.114,A,5220.353,N,00451.219,E,038.9,269.8,170226,000.0,W*77
$GPGGA,121241.114,5220.353,N,00451.201,E,1,12,1.0,0.0,M,0.0,M,,*6C
$GPGSA,A,3,01,02,03,04,05,06,07,08,09,10,11,12,1.0,1.0,1.0*30
$GPRMC,121241.114,A,5220.353,N,00451.201,E,038.9,269.8,170226,000.0,W*7F
$GPGGA,121242.114,5220.353,N,00451.183,E,1,12,1.0,0.0,M,0.0,M,,*66
$GPGSA,A,3,01,02,03,04,05,06,07,08,09,10,11,12,1.0,1.0,1.0*30
$GPRMC,121242.114,A,5220.353,N,00451.183,E,038.9,269.8,170226,000.0,W*75
$GPGGA,121243.114,5220.353,N,00451.166,E,1,12,1.0,0.0,M,0.0,M,,*6C
$GPGSA,A,3,01,02,03,04,05,06,07,08,09,10,11,12,1.0,1.0,1.0*30
$GPRMC,121243.114,A,5220.353,N,00451.166,E,038.9,269.8,170226,000.0,W*7F
$GPGGA,121244.114,5220.353,N,00451.148,E,1,12,1.0,0.0,M,0.0,M,,*67
$GPGSA,A,3,01,02,03,04,05,06,07,08,09,10,11,12,1.0,1.0,1.0*30
$GPRMC,121244.114,A,5220.353,N,00451.148,E,038.9,269.8,170226,000.0,W*74
$GPGGA,121245.114,5220.353,N,00451.130,E,1,12,1.0,0.0,M,0.0,M,,*69
$GPGSA,A,3,01,02,03,04,05,06,07,08,09,10,11,12,1.0,1.0,1.0*30
$GPRMC,121245.114,A,5220.353,N,00451.130,E,038.9,269.8,170226,000.0,W*7A
$GPGGA,121246.114,5220.353,N,00451.113,E,1,12,1.0,0.0,M,0.0,M,,*6B
$GPGSA,A,3,01,02,03,04,05,06,07,08,09,10,11,12,1.0,1.0,1.0*30
$GPRMC,121246.114,A,5220.353,N,00451.113,E,038.9,269.8,170226,000.0,W*78
$GPGGA,121247.114,5220.353,N,00451.095,E,1,12,1.0,0.0,M,0.0,M,,*65
$GPGSA,A,3,01,02,03,04,05,06,07,08,09,10,11,12,1.0,1.0,1.0*30
$GPRMC,121247.114,A,5220.353,N,00451.095,E,038.9,269.8,170226,000.0,W*76
$GPGGA,121248.114,5220.353,N,00451.077,E,1,12,1.0,0.0,M,0.0,M,,*66
$GPGSA,A,3,01,02,03,04,05,06,07,08,09,10,11,12,1.0,1.0,1.0*30
$GPRMC,121248.114,A,5220.353,N,00451.077,E,038.9,269.8,170226,000.0,W*75
$GPGGA,121249.114,5220.353,N,00451.060,E,1,12,1.0,0.0,M,0.0,M,,*61
$GPGSA,A,3,01,02,03,04,05,06,07,08,09,10,11,12,1.0,1.0,1.0*30
$GPRMC,121249.114,A,5220.353,N,00451.060,E,038.9,269.8,170226,000.0,W*72
$GPGGA,121250.114,5220.353,N,00451.042,E,1,12,1.0,0.0,M,0.0,M,,*69
$GPGSA,A,3,01,02,03,04,05,06,07,08,09,10,11,12,1.0,1.0,1.0*30
$GPRMC,121250.114,A,5220.353,N,00451.042,E,038.9,269.8,170226,000.0,W*7A
$GPGGA,121251.114,5220.353,N,00451.024,E,1,12,1.0,0.0,M,0.0,M,,*68
$GPGSA,A,3,01,02,03,04,05,06,07,08,09,10,11,12,1.0,1.0,1.0*30
$GPRMC,121251.114,A,5220.353,N,00451.024,E,038.9,269.8,170226,000.0,W*7B
$GPGGA,121252.114,5220.353,N,00451.007,E,1,12,1.0,0.0,M,0.0,M,,*6A
$GPGSA,A,3,01,02,03,04,05,06,07,08,09,10,11,12,1.0,1.0,1.0*30
$GPRMC,121252.114,A,5220.353,N,00451.007,E,038.9,269.8,170226,000.0,W*79
$GPGGA,121253.114,5220.353,N,00450.989,E,1,12,1.0,0.0,M,0.0,M,,*65
$GPGSA,A,3,01,02,03,04,05,06,07,08,09,10,11,12,1.0,1.0,1.0*30
$GPRMC,121253.114,A,5220.353,N,00450.989,E,038.9,269.8,170226,000.0,W*76
$GPGGA,121254.114,5220.353,N,00450.971,E,1,12,1.0,0.0,M,0.0,M,,*65
$GPGSA,A,3,01,02,03,04,05,06,07,08,09,10,11,12,1.0,1.0,1.0*30
$GPRMC,121254.114,A,5220.353,N,00450.971,E,038.9,269.8,170226,000.0,W*76
$GPGGA,121255.114,5220.353,N,00450.954,E,1,12,1.0,0.0,M,0.0,M,,*63
$GPGSA,A,3,01,02,03,04,05,06,07,08,09,10,11,12,1.0,1.0,1.0*30
$GPRMC,121255.114,A,5220.353,N,00450.954,E,038.9,269.8,170226,000.0,W*70
$GPGGA,121256.114,5220.352,N,00450.936,E,1,12,1.0,0.0,M,0.0,M,,*65
$GPGSA,A,3,01,02,03,04,05,06,07,08,09,10,11,12,1.0,1.0,1.0*30
$GPRMC,121256.114,A,5220.352,N,00450.936,E,038.9,269.8,170226,000.0,W*76
$GPGGA,121257.114,5220.352,N,00450.918,E,1,12,1.0,0.0,M,0.0,M,,*68
$GPGSA,A,3,01,02,03,04,05,06,07,08,09,10,11,12,1.0,1.0,1.0*30
$GPRMC,121257.114,A,5220.352,N,00450.918,E,038.9,269.8,170226,000.0,W*7B
$GPGGA,121258.114,5220.352,N,00450.901,E,1,12,1.0,0.0,M,0.0,M,,*6F
$GPGSA,A,3,01,02,03,04,05,06,07,08,09,10,11,12,1.0,1.0,1.0*30
$GPRMC,121258.114,A,5220.352,N,00450.901,E,038.9,269.8,170226,000.0,W*7C
$GPGGA,121259.114,5220.352,N,00450.883,E,1,12,1.0,0.0,M,0.0,M,,*65
$GPGSA,A,3,01,02,03,04,05,06,07,08,09,10,11,12,1.0,1.0,1.0*30
$GPRMC,121259.114,A,5220.352,N,00450.883,E,038.9,269.8,170226,000.0,W*76
$GPGGA,121300.114,5220.352,N,00450.865,E,1,12,1.0,0.0,M,0.0,M,,*60
$GPGSA,A,3,01,02,03,04,05,06,07,08,09,10,11,12,1.0,1.0,1.0*30
$GPRMC,121300.114,A,5220.352,N,00450.865,E,038.9,269.8,170226,000.0,W*73
$GPGGA,121301.114,5220.352,N,00450.848,E,1,12,1.0,0.0,M,0.0,M,,*6E
$GPGSA,A,3,01,02,03,04,05,06,07,08,09,10,11,12,1.0,1.0,1.0*30
$GPRMC,121301.114,A,5220.352,N,00450.848,E,038.9,269.8,170226,000.0,W*7D
$GPGGA,121302.114,5220.352,N,00450.830,E,1,12,1.0,0.0,M,0.0,M,,*62
$GPGSA,A,3,01,02,03,04,05,06,07,08,09,10,11,12,1.0,1.0,1.0*30
$GPRMC,121302.114,A,5220.352,N,00450.830,E,038.9,269.8,170226,000.0,W*71
$GPGGA,121303.114,5220.352,N,00450.812,E,1,12,1.0,0.0,M,0.0,M,,*63
$GPGSA,A,3,01,02,03,04,05,06,07,08,09,10,11,12,1.0,1.0,1.0*30
$GPRMC,121303.114,A,5220.352,N,00450.812,E,038.9,269.8,170226,000.0,W*70
$GPGGA,121304.114,5220.352,N,00450.795,E,1,12,1.0,0.0,M,0.0,M,,*64
$GPGSA,A,3,01,02,03,04,05,06,07,08,09,10,11,12,1.0,1.0,1.0*30
$GPRMC,121304.114,A,5220.352,N,00450.795,E,038.9,269.8,170226,000.0,W*77
$GPGGA,121305.114,5220.352,N,00450.777,E,1,12,1.0,0.0,M,0.0,M,,*69
$GPGSA,A,3,01,02,03,04,05,06,07,08,09,10,11,12,1.0,1.0,1.0*30
$GPRMC,121305.114,A,5220.352,N,00450.777,E,038.9,269.8,170226,000.0,W*7A
$GPGGA,121306.114,5220.352,N,00450.759,E,1,12,1.0,0.0,M,0.0,M,,*66
$GPGSA,A,3,01,02,03,04,05,06,07,08,09,10,11,12,1.0,1.0,1.0*30
$GPRMC,121306.114,A,5220.352,N,00450.759,E,038.9,269.8,170226,000.0,W*75
$GPGGA,121307.114,5220.352,N,00450.742,E,1,12,1.0,0.0,M,0.0,M,,*6D
$GPGSA,A,3,01,02,03,04,05,06,07,08,09,10,11,12,1.0,1.0,1.0*30
$GPRMC,121307.114,A,5220.352,N,00450.742,E,038.9,269.8,170226,000.0,W*7E
$GPGGA,121308.114,5220.352,N,00450.724,E,1,12,1.0,0.0,M,0.0,M,,*62
$GPGSA,A,3,01,02,03,04,05,06,07,08,09,10,11,12,1.0,1.0,1.0*30
$GPRMC,121308.114,A,5220.352,N,00450.724,E,038.9,269.8,170226,000.0,W*71
$GPGGA,121309.114,5220.352,N,00450.706,E,1,12,1.0,0.0,M,0.0,M,,*63
$GPGSA,A,3,01,02,03,04,05,06,07,08,09,10,11,12,1.0,1.0,1.0*30
$GPRMC,121309.114,A,5220.352,N,00450.706,E,038.9,269.8,170226,000.0,W*70
$GPGGA,121310.114,5220.352,N,00450.689,E,1,12,1.0,0.0,M,0.0,M,,*6D
$GPGSA,A,3,01,02,03,04,05,06,07,08,09,10,11,12,1.0,1.0,1.0*30
$GPRMC,121310.114,A,5220.352,N,00450.689,E,038.9,269.8,170226,000.0,W*7E
$GPGGA,121311.114,5220.352,N,00450.671,E,1,12,1.0,0.0,M,0.0,M,,*6B
$GPGSA,A,3,01,02,03,04,05,06,07,08,09,10,11,12,1.0,1.0,1.0*30
$GPRMC,121311.114,A,5220.352,N,00450.671,E,038.9,269.8,170226,000.0,W*78
$GPGGA,121312.114,5220.352,N,00450.653,E,1,12,1.0,0.0,M,0.0,M,,*68
$GPGSA,A,3,01,02,03,04,05,06,07,08,09,10,11,12,1.0,1.0,1.0*30
$GPRMC,121312.114,A,5220.352,N,00450.653,E,038.9,269.8,170226,000.0,W*7B
$GPGGA,121313.114,5220.352,N,00450.636,E,1,12,1.0,0.0,M,0.0,M,,*6A
$GPGSA,A,3,01,02,03,04,05,06,07,08,09,10,11,12,1.0,1.0,1.0*30
$GPRMC,121313.114,A,5220.352,N,00450.636,E,038.9,269.8,170226,000.0,W*79
$GPGGA,121314.114,5220.352,N,00450.618,E,1,12,1.0,0.0,M,0.0,M,,*61
$GPGSA,A,3,01,02,03,04,05,06,07,08,09,10,11,12,1.0,1.0,1.0*30
$GPRMC,121314.114,A,5220.352,N,00450.618,E,038.9,269.8,170226,000.0,W*72
$GPGGA,121315.114,5220.352,N,00450.600,E,1,12,1.0,0.0,M,0.0,M,,*69
$GPGSA,A,3,01,02,03,04,05,06,07,08,09,10,11,12,1.0,1.0,1.0*30
$GPRMC,121315.114,A,5220.352,N,00450.600,E,038.9,269.8,170226,000.0,W*7A
$GPGGA,121316.114,5220.352,N,00450.583,E,1,12,1.0,0.0,M,0.0,M,,*62
$GPGSA,A,3,01,02,03,04,05,06,07,08,09,10,11,12,1.0,1.0,1.0*30
$GPRMC,121316.114,A,5220.352,N,00450.583,E,038.9,269.8,170226,000.0,W*71
$GPGGA,121317.114,5220.352,N,00450.565,E,1,12,1.0,0.0,M,0.0,M,,*6B
$GPGSA,A,3,01,02,03,04,05,06,07,08,09,10,11,12,1.0,1.0,1.0*30
$GPRMC,121317.114,A,5220.352,N,00450.565,E,038.9,269.8,170226,000.0,W*78
$GPGGA,121318.114,5220.352,N,00450.547,E,1,12,1.0,0.0,M,0.0,M,,*64
$GPGSA,A,3,01,02,03,04,05,06,07,08,09,10,11,12,1.0,1.0,1.0*30
$GPRMC,121318.114,A,5220.352,N,00450.547,E,038.9,269.8,170226,000.0,W*77
$GPGGA,121319.114,5220.352,N,00450.530,E,1,12,1.0,0.0,M,0.0,M,,*65
$GPGSA,A,3,01,02,03,04,05,06,07,08,09,10,11,12,1.0,1.0,1.0*30
$GPRMC,121319.114,A,5220.352,N,00450.530,E,038.9,269.8,170226,000.0,W*76
$GPGGA,121320.114,5220.351,N,00450.512,E,1,12,1.0,0.0,M,0.0,M,,*6C
$GPGSA,A,3,01,02,03,04,05,06,07,08,09,10,11,12,1.0,1.0,1.0*30
$GPRMC,121320.114,A,5220.351,N,00450.512,E,038.9,269.8,170226,000.0,W*7F
$GPGGA,121321.114,5220.351,N,00450.494,E,1,12,1.0,0.0,M,0.0,M,,*62
$GPGSA,A,3,01,02,03,04,05,06,07,08,09,10,11,12,1.0,1.0,1.0*30
$GPRMC,121321.114,A,5220.351,N,00450.494,E,038.9,269.8,170226,000.0,W*71
$GPGGA,121322.114,5220.351,N,00450.477,E,1,12,1.0,0.0,M,0.0,M,,*6C
$GPGSA,A,3,01,02,03,04,05,06,07,08,09,10,11,12,1.0,1.0,1.0*30
$GPRMC,121322.114,A,5220.351,N,00450.477,E,038.9,269.8,170226,000.0,W*7F
$GPGGA,121323.114,5220.351,N,00450.459,E,1,12,1.0,0.0,M,0.0,M,,*61
$GPGSA,A,3,01,02,03,04,05,06,07,08,09,10,11,12,1.0,1.0,1.0*30
$GPRMC,121323.114,A,5220.351,N,00450.459,E,038.9,269.8,170226,000.0,W*72
$GPGGA,121324.114,5220.351,N,00450.441,E,1,12,1.0,0.0,M,0.0,M,,*6F
$GPGSA,A,3,01,02,03,04,05,06,07,08,09,10,11,12,1.0,1.0,1.0*30
$GPRMC,121324.114,A,5220.351,N,00450.441,E,038.9,269.8,170226,000.0,W*7C
$GPGGA,121325.114,5220.351,N,00450.424,E,1,12,1.0,0.0,M,0.0,M,,*6D
$GPGSA,A,3,01,02,03,04,05,06,07,08,09,10,11,12,1.0,1.0,1.0*30
$GPRMC,121325.114,A,5220.351,N,00450.424,E,038.9,269.8,170226,000.0,W*7E
$GPGGA,121326.114,5220.351,N,00450.406,E,1,12,1.0,0.0,M,0.0,M,,*6E
$GPGSA,A,3,01,02,03,04,05,06,07,08,09,10,11,12,1.0,1.0,1.0*30
$GPRMC,121326.114,A,5220.351,N,00450.406,E,038.9,269.8,170226,000.0,W*7D
$GPGGA,121327.114,5220.351,N,00450.389,E,1,12,1.0,0.0,M,0.0,M,,*6F
$GPGSA,A,3,01,02,03,04,05,06,07,08,09,10,11,12,1.0,1.0,1.0*30
$GPRMC,121327.114,A,5220.351,N,00450.389,E,038.9,269.8,170226,000.0,W*7C
$GPGGA,121328.114,5220.351,N,00450.371,E,1,12,1.0,0.0,M,0.0,M,,*67
$GPGSA,A,3,01,02,03,04,05,06,07,08,09,10,11,12,1.0,1.0,1.0*30
$GPRMC,121328.114,A,5220.351,N,00450.371,E,038.9,269.8,170226,000.0,W*74
$GPGGA,121329.114,5220.351,N,00450.353,E,1,12,1.0,0.0,M,0.0,M,,*66
$GPGSA,A,3,01,02,03,04,05,06,07,08,09,10,11,12,1.0,1.0,1.0*30
$GPRMC,121329.114,A,5220.351,N,00450.353,E,038.9,269.8,170226,000.0,W*75
$GPGGA,121330.114,5220.351,N,00450.336,E,1,12,1.0,0.0,M,0.0,M,,*6D
$GPGSA,A,3,01,02,03,04,05,06,07,08,09,10,11,12,1.0,1.0,1.0*30
$GPRMC,121330.114,A,5220.351,N,00450.336,E,038.9,269.8,170226,000.0,W*7E
$GPGGA,121331.114,5220.351,N,00450.318,E,1,12,1.0,0.0,M,0.0,M,,*60
$GPGSA,A,3,01,02,03,04,05,06,07,08,09,10,11,12,1.0,1.0,1.0*30
$GPRMC,121331.114,A,5220.351,N,00450.318,E,038.9,269.8,170226,000.0,W*73
$GPGGA,121332.114,5220.351,N,00450.300,E,1,12,1.0,0.0,M,0.0,M,,*6A
$GPGSA,A,3,01,02,03,04,05,06,07,08,09,10,11,12,1.0,1.0,1.0*30
$GPRMC,121332.114,A,5220.351,N,00450.300,E,038.9,269.8,170226,000.0,W*79
$GPGGA,121333.114,5220.351,N,00450.283,E,1,12,1.0,0.0,M,0.0,M,,*61
$GPGSA,A,3,01,02,03,04,05,06,07,08,09,10,11,12,1.0,1.0,1.0*30
$GPRMC,121333.114,A,5220.351,N,00450.283,E,038.9,269.8,170226,000.0,W*72
$GPGGA,121334.114,5220.351,N,00450.265,E,1,12,1.0,0.0,M,0.0,M,,*6E
$GPGSA,A,3,01,02,03,04,05,06,07,08,09,10,11,12,1.0,1.0,1.0*30
$GPRMC,121334.114,A,5220.351,N,00450.265,E,038.9,269.8,170226,000.0,W*7D
$GPGGA,121335.114,5220.351,N,00450.247,E,1,12,1.0,0.0,M,0.0,M,,*6F
$GPGSA,A,3,01,02,03,04,05,06,07,08,09,10,11,12,1.0,1.0,1.0*30
$GPRMC,121335.114,A,5220.351,N,00450.247,E,038.9,269.8,170226,000.0,W*7C
$GPGGA,121336.114,5220.351,N,00450.230,E,1,12,1.0,0.0,M,0.0,M,,*6C
$GPGSA,A,3,01,02,03,04,05,06,07,08,09,10,11,12,1.0,1.0,1.0*30
$GPRMC,121336.114,A,5220.351,N,00450.230,E,038.9,269.8,170226,000.0,W*7F
$GPGGA,121337.114,5220.351,N,00450.212,E,1,12,1.0,0.0,M,0.0,M,,*6D
$GPGSA,A,3,01,02,03,04,05,06,07,08,09,10,11,12,1.0,1.0,1.0*30
$GPRMC,121337.114,A,5220.351,N,00450.212,E,038.9,269.8,170226,000.0,W*7E
$GPGGA,121338.114,5220.351,N,00450.194,E,1,12,1.0,0.0,M,0.0,M,,*6F
$GPGSA,A,3,01,02,03,04,05,06,07,08,09,10,11,12,1.0,1.0,1.0*30
$GPRMC,121338.114,A,5220.351,N,00450.194,E,038.9,269.8,170226,000.0,W*7C
$GPGGA,121339.114,5220.351,N,00450.177,E,1,12,1.0,0.0,M,0.0,M,,*63
$GPGSA,A,3,01,02,03,04,05,06,07,08,09,10,11,12,1.0,1.0,1.0*30
$GPRMC,121339.114,A,5220.351,N,00450.177,E,038.9,269.8,170226,000.0,W*70
$GPGGA,121340.114,5220.351,N,00450.159,E,1,12,1.0,0.0,M,0.0,M,,*61
$GPGSA,A,3,01,02,03,04,05,06,07,08,09,10,11,12,1.0,1.0,1.0*30
$GPRMC,121340.114,A,5220.351,N,00450.159,E,038.9,269.8,170226,000.0,W*72
$GPGGA,121341.114,5220.351,N,00450.141,E,1,12,1.0,0.0,M,0.0,M,,*69
$GPGSA,A,3,01,02,03,04,05,06,07,08,09,10,11,12,1.0,1.0,1.0*30
$GPRMC,121341.114,A,5220.351,N,00450.141,E,038.9,269.8,170226,000.0,W*7A
$GPGGA,121342.114,5220.351,N,00450.124,E,1,12,1.0,0.0,M,0.0,M,,*69
$GPGSA,A,3,01,02,03,04,05,06,07,08,09,10,11,12,1.0,1.0,1.0*30
$GPRMC,121342.114,A,5220.351,N,00450.124,E,038.9,269.8,170226,000.0,W*7A
$GPGGA,121343.114,5220.351,N,00450.106,E,1,12,1.0,0.0,M,0.0,M,,*68
$GPGSA,A,3,01,02,03,04,05,06,07,08,09,10,11,12,1.0,1.0,1.0*30
$GPRMC,121343.114,A,5220.351,N,00450.106,E,038.9,269.8,170226,000.0,W*7B
$GPGGA,121344.114,5220.350,N,00450.088,E,1,12,1.0,0.0,M,0.0,M,,*69
$GPGSA,A,3,01,02,03,04,05,06,07,08,09,10,11,12,1.0,1.0,1.0*30
$GPRMC,121344.114,A,5220.350,N,00450.088,E,038.9,269.8,170226,000.0,W*7A
$GPGGA,121345.114,5220.350,N,00450.071,E,1,12,1.0,0.0,M,0.0,M,,*6E
$GPGSA,A,3,01,02,03,04,05,06,07,08,09,10,11,12,1.0,1.0,1.0*30
$GPRMC,121345.114,A,5220.350,N,00450.071,E,038.9,269.8,170226,000.0,W*7D
